{ "words" :[{"lon":7.4652024,"lat":51.549184,"name":"Bereitschaftspolizeihundertschaft NRW"},{"lon":7.4535553,"lat":51.4940529,"name":"Kampfbahn \"Rote Erde\""},{"lon":7.4503892,"lat":51.4942119,"name":"Signal-Iduna-Stadion"},{"lon":7.4158761,"lat":51.5316402,"name":"Abant Grill"},{"lon":7.3654715,"lat":51.4884966,"name":"Abendgymnasium Kley"},{"lon":7.4500609,"lat":51.5121448,"name":"Abendgymnasium/Weiterbildungskolleg der Stadt Dortmund"},{"lon":7.4068636,"lat":51.5414882,"name":"Abenteuerland"},{"lon":7.4535275,"lat":51.5372917,"name":"Abenteuerspielplatz"},{"lon":7.5370049,"lat":51.5569002,"name":"Abenteuerspielplatz Scharnhorst"},{"lon":7.3616319,"lat":51.4840866,"name":"Abfalltonnen (Nur für Mieter)"},{"lon":7.484631,"lat":51.4623311,"name":"Academy Bernds Fahrschule"},{"lon":7.3740206,"lat":51.4989206,"name":"Achim Eisenhuth"},{"lon":7.3688197,"lat":51.5003543,"name":"Adalbert-Josef Keller - Allgemeinarzt und Dr. med. Paul Keller Facharzt für Innere Medizin"},{"lon":7.3456939,"lat":51.4990518,"name":"Adami Bestattungen"},{"lon":7.3507401,"lat":51.4982255,"name":"Adam J. von Ostrowski (Allgemeinarzt)"},{"lon":7.4696493,"lat":51.4746609,"name":"Adler"},{"lon":7.4667459,"lat":51.5139835,"name":"Adler Apotheke"},{"lon":7.5004768,"lat":51.469514,"name":"Admiralplatz"},{"lon":7.5589999,"lat":51.4922088,"name":"Adolf-Schulte-Schule Dortmund (Förderschule)"},{"lon":7.3475372,"lat":51.4988027,"name":"Adriatic"},{"lon":7.3106149,"lat":51.5198245,"name":"ADRK BG Dortmund-Bövinghausen"},{"lon":7.4696972,"lat":51.5007464,"name":"Adventgemeinde Dortmund"},{"lon":7.5030942,"lat":51.4852219,"name":"Aesculap Apotheke"},{"lon":7.4706203,"lat":51.4709641,"name":"Afrika-Anlage"},{"lon":7.5839771,"lat":51.5281997,"name":"Ahorn-Apotheke"},{"lon":7.452807,"lat":51.5216725,"name":"Aida"},{"lon":7.5721518,"lat":51.5011025,"name":"Airport Hotel"},{"lon":7.4996567,"lat":51.4817002,"name":"Akropolis"},{"lon":7.4054903,"lat":51.4815504,"name":"Akropolis Grill"},{"lon":7.5320514,"lat":51.5533787,"name":"Albert-Einstein-Realschule"},{"lon":7.391954,"lat":51.559179,"name":"Albert-Schweitzer-Realschule"},{"lon":7.4590394,"lat":51.5277918,"name":"Albrecht Brinkmann Grundschule"},{"lon":7.5595112,"lat":51.4906285,"name":"Albrecht-Dürer-Realschule Aplerbeck"},{"lon":7.38108,"lat":51.5076143,"name":"Aldi-Parkplatz"},{"lon":7.4687929,"lat":51.5148271,"name":"ALEX"},{"lon":7.4721761,"lat":51.5308249,"name":"Al fitness"},{"lon":7.4542757,"lat":51.510748,"name":"Alfons-Spielhoff-Platz"},{"lon":7.382709,"lat":51.5284001,"name":"Alfred-Adler-Schule"},{"lon":7.5556981,"lat":51.4923659,"name":"Ali Baba"},{"lon":7.5875888,"lat":51.4973235,"name":"Alidadi Amir"},{"lon":7.4575211,"lat":51.501653,"name":"Allegro"},{"lon":7.4653559,"lat":51.5143493,"name":"Allgemeinmedizinische Praxis in Krügerhaus"},{"lon":7.5481647,"lat":51.5046294,"name":"Allgemeinspychatrische Tagesklinik"},{"lon":7.5049263,"lat":51.5146627,"name":"Alloheim Senioren-Residenz"},{"lon":7.3284237,"lat":51.4961648,"name":"All Seasons Hotel"},{"lon":7.377939,"lat":51.5703379,"name":"Alte Apotheke"},{"lon":7.4936688,"lat":51.4703052,"name":"Alte Kirche Wellinghofen"},{"lon":7.4580213,"lat":51.5527368,"name":"Alte Kolonie Eving"},{"lon":7.4178374,"lat":51.5297253,"name":"Alte Mühle"},{"lon":7.481931,"lat":51.4953722,"name":"Altenakademie"},{"lon":7.4618158,"lat":51.5122833,"name":"Altenheim Christinenstift"},{"lon":7.3304438,"lat":51.5084941,"name":"Altenzentrum Lütgendortmund"},{"lon":7.4152208,"lat":51.5334972,"name":"Alter Bahnhof"},{"lon":7.4711925,"lat":51.51468,"name":"Alternatif"},{"lon":7.4705541,"lat":51.5079998,"name":"Alter Weinkeller"},{"lon":7.3834349,"lat":51.5099231,"name":"Altes Brauhaus"},{"lon":7.4425577,"lat":51.525893,"name":"Altes Hafenamt"},{"lon":7.5017331,"lat":51.4892942,"name":"Alt Hörde"},{"lon":7.487209,"lat":51.423898,"name":"Alt-Syburg"},{"lon":7.4764423,"lat":51.5136023,"name":"Am Freispruch"},{"lon":7.4256575,"lat":51.5070652,"name":"Am Mühlenberg, Do.-Dorstfeld"},{"lon":7.5220491,"lat":51.5169836,"name":"Am Nussbaumweg"},{"lon":7.5000166,"lat":51.518503,"name":"AMS Richter"},{"lon":7.3317659,"lat":51.499918,"name":"Amts-Apotheke"},{"lon":7.4775035,"lat":51.5154143,"name":"Amtsgericht Dortmund"},{"lon":7.4780299,"lat":51.516555,"name":"Amtsgericht und Staatsanwaltschaft"},{"lon":7.4433801,"lat":51.4756098,"name":"Amtshaus-Apotheke"},{"lon":7.3809206,"lat":51.5715485,"name":"Amtshauspark"},{"lon":7.4555905,"lat":51.5034623,"name":"Am Vinckeplatz"},{"lon":7.4438301,"lat":51.4755722,"name":"Anadolu Döner"},{"lon":7.4595906,"lat":51.5159152,"name":"Anadolu Grill"},{"lon":7.4220555,"lat":51.506131,"name":"Anas Kraftort"},{"lon":7.4921068,"lat":51.4760363,"name":"Andalucias"},{"lon":7.4772639,"lat":51.492186,"name":"An der Buschmühle"},{"lon":7.4380192,"lat":51.4902584,"name":"An der Palmweide"},{"lon":7.3804301,"lat":51.5111701,"name":"An der Wasserburg"},{"lon":7.3337014,"lat":51.5203302,"name":"Angelparadies Brandheide"},{"lon":7.4737404,"lat":51.5124912,"name":"Anna-Zillken-Berufskolleg"},{"lon":7.4628993,"lat":51.5305381,"name":"Anne-Frank-Gesamtschule"},{"lon":7.4525933,"lat":51.5082483,"name":"Anne Möller Cafe"},{"lon":7.4566209,"lat":51.513712,"name":"Antep Kebabhaus"},{"lon":7.5056507,"lat":51.4793231,"name":"Antje's Grill+Pizza-Stübchen"},{"lon":7.4649624,"lat":51.5163011,"name":"Antons Bierkönig"},{"lon":7.4215764,"lat":51.5174471,"name":"Anwohnerparkplatz Höfkerstraße 47-49"},{"lon":7.4644809,"lat":51.5175139,"name":"A&O Hostel"},{"lon":7.3642117,"lat":51.5181261,"name":"Aphrodite"},{"lon":7.5625096,"lat":51.496252,"name":"Aplerbecker Grundschule"},{"lon":7.5627401,"lat":51.4834139,"name":"Aplerbecker Mark Grundschule"},{"lon":7.568578,"lat":51.4841086,"name":"Aplerbecker Schützenverein"},{"lon":7.5511094,"lat":51.4911838,"name":"Aplerbeck Saunaclub"},{"lon":7.5535714,"lat":51.4911133,"name":"Aplerdent | Dr. Ulrich Hansmeier"},{"lon":7.4655811,"lat":51.5539431,"name":"Apotheke am Externberg"},{"lon":7.4643149,"lat":51.5120998,"name":"Apotheke am Hansaplatz"},{"lon":7.5335378,"lat":51.5203888,"name":"Apotheke am Knappschafts-Krankenhaus"},{"lon":7.5067029,"lat":51.4908067,"name":"Apotheke am Phoenixsee"},{"lon":7.4594678,"lat":51.4775504,"name":"Apotheke am Tierpark"},{"lon":7.4640093,"lat":51.5160735,"name":"Apotheke am Westfalenhaus"},{"lon":7.5442959,"lat":51.5577498,"name":"Apotheke - Ausbüttels"},{"lon":7.4325553,"lat":51.4759363,"name":"Apotheke im Harkortbogen"},{"lon":7.5112704,"lat":51.5178795,"name":"Apotheke im Kaufland-Körne"},{"lon":7.4649985,"lat":51.5470772,"name":"Apotheke im PueD"},{"lon":7.4697501,"lat":51.5144812,"name":"Apotheke Magnum"},{"lon":7.4626285,"lat":51.5481236,"name":"Apotheke Neue Evinger Mitte"},{"lon":7.4637508,"lat":51.5796198,"name":"Apotheke Streich"},{"lon":7.4917973,"lat":51.4694122,"name":"Apotheke Wellinghofen"},{"lon":7.3730445,"lat":51.5199393,"name":"Aral"},{"lon":7.4713607,"lat":51.4996047,"name":"ARAL"},{"lon":7.5513232,"lat":51.5243222,"name":"Aral (24h)"},{"lon":7.4739564,"lat":51.5092578,"name":"Aral Tankstelle Heiliger Weg"},{"lon":7.4523797,"lat":51.4985741,"name":"Arcadia Grand Hotel"},{"lon":7.4144624,"lat":51.4837924,"name":"Archeteri@ und Mensa Süd"},{"lon":7.3825844,"lat":51.5095996,"name":"Ardey-Apotheke"},{"lon":7.4542873,"lat":51.5019472,"name":"Arnecke"},{"lon":7.4632451,"lat":51.5153647,"name":"Aroma Pizza-Döner"},{"lon":7.4453914,"lat":51.5132175,"name":"Aroy Dee Original Thai Imbiss"},{"lon":7.4648605,"lat":51.5123198,"name":"ART-Dortmund"},{"lon":7.4680824,"lat":51.5049785,"name":"Artemis"},{"lon":7.4370479,"lat":51.4820925,"name":"Artemis-Grill"},{"lon":7.468001,"lat":51.504896,"name":"Artemis to go"},{"lon":7.4535538,"lat":51.5112454,"name":"ART-isotope · Galerie Schöber"},{"lon":7.4855642,"lat":51.5130666,"name":"Artur-Schulze-Engels-Platz"},{"lon":7.4426046,"lat":51.475656,"name":"Ärztehaus"},{"lon":7.3342872,"lat":51.501389,"name":"Ärztehausparkplatz"},{"lon":7.3834017,"lat":51.5092926,"name":"Arztpraxis Dr. med. Bonnenberg"},{"lon":7.459332,"lat":51.5174216,"name":"Asia Gourmet"},{"lon":7.6132872,"lat":51.5325031,"name":"Asia Imbiss Siam"},{"lon":7.4680574,"lat":51.5146281,"name":"Asia Kim Phú"},{"lon":7.5587961,"lat":51.4941712,"name":"Asia Mac Rice"},{"lon":7.4708344,"lat":51.529682,"name":"Asia Restaurant Mogolia"},{"lon":7.4569211,"lat":51.5137597,"name":"Asia-Wok"},{"lon":7.5308515,"lat":51.4785963,"name":"Astibo Steak House"},{"lon":7.487033,"lat":51.5297239,"name":"Atelierhaus Westfalenhütte"},{"lon":7.3839754,"lat":51.5695691,"name":"Athen Grill"},{"lon":7.474942,"lat":51.5164841,"name":"Atlantico Cafe"},{"lon":7.5333279,"lat":51.510257,"name":"Auf dem Hohwart"},{"lon":7.4089596,"lat":51.5281486,"name":"Auf der Heide"},{"lon":7.5152872,"lat":51.5450345,"name":"Auferstehungskirche Scharnhorst"},{"lon":7.3817404,"lat":51.5079739,"name":"Augenarzt Dr. med. Helmut Stodollick"},{"lon":7.4715412,"lat":51.5141102,"name":"Augenärzte Brons et.al."},{"lon":7.4390464,"lat":51.4754112,"name":"Augenzentrum Hombruch"},{"lon":7.5463622,"lat":51.528756,"name":"Augustinus Grundschule"},{"lon":7.5432867,"lat":51.5522191,"name":"Ausbüttels Apotheke im EKS"},{"lon":7.460558,"lat":51.5199039,"name":"Auslandsgesellschaft"},{"lon":7.5247871,"lat":51.4882345,"name":"Aussichtsrichtungen"},{"lon":7.4847251,"lat":51.4585559,"name":"Automobil Museum Dortmund"},{"lon":7.4591511,"lat":51.4762425,"name":"Avanti Grill"},{"lon":7.3440619,"lat":51.4971101,"name":"Avia"},{"lon":7.5703902,"lat":51.5047577,"name":"Avie Apotheke"},{"lon":7.5063808,"lat":51.4901274,"name":"Avo & Cado"},{"lon":7.4479365,"lat":51.4761091,"name":"AWO"},{"lon":7.5071265,"lat":51.4311116,"name":"AWO Begegnungsstätte OV Syburg/Buchholz"},{"lon":7.5057208,"lat":51.5542611,"name":"AWO Jugendtreff"},{"lon":7.5331069,"lat":51.5107764,"name":"AWO Kindertageseinrichtung „Auf dem Hohwart\""},{"lon":7.4884379,"lat":51.4829055,"name":"AWO Kita"},{"lon":7.5060318,"lat":51.5537267,"name":"AWO Ortsverband Kirchderne"},{"lon":7.3609031,"lat":51.5194664,"name":"AWO-Seniorenzentrum Dortmund-Kirchlinde"},{"lon":7.5922551,"lat":51.4675056,"name":"Axxe-Restaurant Lichtendorf Nord"},{"lon":7.4605584,"lat":51.5045104,"name":"Ayman's"},{"lon":7.4518309,"lat":51.4933747,"name":"B 61"},{"lon":7.4682056,"lat":51.516623,"name":"Ba3essa"},{"lon":7.6195828,"lat":51.5350592,"name":"Bach Grundschule"},{"lon":7.6190988,"lat":51.5347691,"name":"Bach-Grundschule"},{"lon":7.5062653,"lat":51.5160725,"name":"Bäcker Beckmann"},{"lon":7.4573811,"lat":51.4485718,"name":"Bäckerei Kreis"},{"lon":7.5266672,"lat":51.5038179,"name":"Bäckerei und Cafe"},{"lon":7.4966095,"lat":51.507327,"name":"Bäckerei Westermann"},{"lon":7.5511793,"lat":51.5335155,"name":"Bäckermeister Grobe"},{"lon":7.5413057,"lat":51.5377898,"name":"Backhaus Grobe - Café"},{"lon":7.3942296,"lat":51.5035481,"name":"Back & Snack"},{"lon":7.456875,"lat":51.5186158,"name":"Bahnpark"},{"lon":7.5313948,"lat":51.4881355,"name":"Bailar"},{"lon":7.5352822,"lat":51.4778388,"name":"Bajbouj"},{"lon":7.4587025,"lat":51.5003581,"name":"Balke"},{"lon":7.4527292,"lat":51.5222351,"name":"Bal Köfte"},{"lon":7.54484,"lat":51.5221389,"name":"Balou"},{"lon":7.4714368,"lat":51.5125502,"name":"Bamboo"},{"lon":7.4683842,"lat":51.516271,"name":"BAM BOO MERANG"},{"lon":7.5030553,"lat":51.5153833,"name":"Bambus Garten"},{"lon":7.4651012,"lat":51.5156731,"name":"Ban-Do"},{"lon":7.4725855,"lat":51.5164516,"name":"Bank für Kirche und Diakonie"},{"lon":7.3711909,"lat":51.5673196,"name":"Bärenapotheke"},{"lon":7.4645275,"lat":51.5048386,"name":"Bären-Apotheke"},{"lon":7.4272013,"lat":51.4766545,"name":"Bar im Lennhof"},{"lon":7.4310998,"lat":51.4925383,"name":"Baröpchen"},{"lon":7.4305794,"lat":51.4769507,"name":"Baroper Eck"},{"lon":7.3374493,"lat":51.4998246,"name":"Bartholomäus-Kirche"},{"lon":7.3781937,"lat":51.5666449,"name":"Basketballfeld"},{"lon":7.5607537,"lat":51.4901828,"name":"Basketball-Platz (Tartan)"},{"lon":7.4602449,"lat":51.5462405,"name":"Bavaria"},{"lon":7.4681875,"lat":51.5176768,"name":"B&B Hotel Dortmund-City"},{"lon":7.4443281,"lat":51.4946937,"name":"B&B Hotel Dortmund Messe"},{"lon":7.3778167,"lat":51.5666036,"name":"Beachvolleyballfeld"},{"lon":7.4285054,"lat":51.546414,"name":"Begegnungszentrum Deusenkirche"},{"lon":7.3343255,"lat":51.5011567,"name":"Beguinen Apotheke"},{"lon":7.4059624,"lat":51.4901357,"name":"Behindertenparkplatz"},{"lon":7.4468887,"lat":51.475346,"name":"Bei Anna"},{"lon":7.4353777,"lat":51.4866263,"name":"Bei Marija"},{"lon":7.510509,"lat":51.5168467,"name":"bei Otti"},{"lon":7.3249336,"lat":51.5022648,"name":"bei Plesken's"},{"lon":7.4957484,"lat":51.4862727,"name":"Bella Italia"},{"lon":7.4529494,"lat":51.5528046,"name":"Belle-Alliance-Platz"},{"lon":7.5164884,"lat":51.4913175,"name":"Bellevue"},{"lon":7.5095435,"lat":51.4764636,"name":"Benninghofer Grillhaus"},{"lon":7.5077855,"lat":51.47392,"name":"Benninghofer Grundschule"},{"lon":7.4130144,"lat":51.4845934,"name":"Bereichsbibliothek Architektur und Bauingenieurwesen"},{"lon":7.4131914,"lat":51.4843795,"name":"Bereichsbibliothek Raumplanung"},{"lon":7.4643477,"lat":51.5487011,"name":"Bereichsbibliothek Sozialforschungsstelle"},{"lon":7.5615597,"lat":51.4953501,"name":"Bergbau-Information"},{"lon":7.4139387,"lat":51.5300967,"name":"Berg & Hütten Apotheke"},{"lon":7.4927272,"lat":51.5128287,"name":"Berswordt Grundschule"},{"lon":7.4674273,"lat":51.5109805,"name":"Berswordthalle"},{"lon":7.3610846,"lat":51.5178937,"name":"Bert-Brecht-Gymnasium"},{"lon":7.3372582,"lat":51.4966647,"name":"Bestattungshaus Teves"},{"lon":7.5070312,"lat":51.4903812,"name":"Best Friends Lounge"},{"lon":7.5074992,"lat":51.4896943,"name":"Best Friends Sushi Grill"},{"lon":7.4804231,"lat":51.4207771,"name":"Besucherbergwerk Graf Wittekind"},{"lon":7.4612996,"lat":51.5203397,"name":"Besucherparkplatz"},{"lon":7.5126275,"lat":51.5215049,"name":"Besucherparkplatz KHS"},{"lon":7.4638712,"lat":51.5137836,"name":"Bethmann Bank"},{"lon":7.4934999,"lat":51.5189682,"name":"Betriebssport DSW"},{"lon":7.3410562,"lat":51.4937649,"name":"Beverbach"},{"lon":7.4535675,"lat":51.5044433,"name":"Bewitched Café"},{"lon":7.3713867,"lat":51.5224704,"name":"Bey Baba"},{"lon":7.4619344,"lat":51.5090887,"name":"Beyim Grill"},{"lon":7.4677035,"lat":51.5167008,"name":"Bey Rock"},{"lon":7.3771152,"lat":51.577795,"name":"Bezirksfriedhof Mengede Parkplatz"},{"lon":7.4397009,"lat":51.4754189,"name":"Bezirksverwaltung Hombruch"},{"lon":7.5010846,"lat":51.4878569,"name":"Bezirksverwaltungsstelle"},{"lon":7.5548469,"lat":51.4917153,"name":"Bezirksverwaltungsstelle Aplerbeck"},{"lon":7.5531009,"lat":51.5242799,"name":"Bezirksverwaltungsstelle Brackel"},{"lon":7.3338605,"lat":51.5001789,"name":"Bezirksverwaltungsstelle Lütgendortmund"},{"lon":7.3802043,"lat":51.571241,"name":"Bezirksverwaltungsstelle Mengede"},{"lon":7.3662522,"lat":51.5519808,"name":"bft"},{"lon":7.5376885,"lat":51.4774907,"name":"BFT"},{"lon":7.4584526,"lat":51.5041933,"name":"Bieder&Meier"},{"lon":7.4990701,"lat":51.5629537,"name":"Biergarten \"Am Schacht 5\""},{"lon":7.4660991,"lat":51.5132265,"name":"Bierhaus Stade"},{"lon":7.4654993,"lat":51.5107944,"name":"Bierkutscher"},{"lon":7.4880838,"lat":51.5197625,"name":"Big Boost Burger"},{"lon":7.4527841,"lat":51.5374437,"name":"Big Tipi - Erlebniswelt Fredenbaum"},{"lon":7.513675,"lat":51.4386517,"name":"Bikeride Mountainbikeschule"},{"lon":7.4155455,"lat":51.5366502,"name":"BINARIUM"},{"lon":7.448369,"lat":51.4791582,"name":"Bio-Bistro auf dem Schultenhof"},{"lon":7.4837512,"lat":51.5128929,"name":"Bismarckparkplatz"},{"lon":7.4687812,"lat":51.5070986,"name":"Bistro-Café Südbad"},{"lon":7.4565447,"lat":51.454168,"name":"Bistro Montesino"},{"lon":7.4051868,"lat":51.4924387,"name":"BistroTec"},{"lon":7.45585,"lat":51.5129465,"name":"Blackend"},{"lon":7.4464261,"lat":51.521049,"name":"Black Pigeon"},{"lon":7.5182449,"lat":51.5600499,"name":"Bladenhorstplatz"},{"lon":7.4664538,"lat":51.5138211,"name":"Bläserbrunnen"},{"lon":7.4747038,"lat":51.4188632,"name":"Blick auf die Ruhr/Hagen"},{"lon":7.3578846,"lat":51.5394643,"name":"Blick auf Dortmund"},{"lon":7.4757764,"lat":51.4189262,"name":"Blick auf Hagen"},{"lon":7.4499115,"lat":51.5201209,"name":"Blücherpark"},{"lon":7.5357468,"lat":51.5205969,"name":"Blümchen-Café"},{"lon":7.4338603,"lat":51.4714952,"name":"BMX and Mountainbike area"},{"lon":7.5604456,"lat":51.4946103,"name":"Bobby's Pizzeria"},{"lon":7.3813904,"lat":51.5514273,"name":"Bodelschwingher Hof"},{"lon":7.3888118,"lat":51.5634688,"name":"Body Firness Center"},{"lon":7.5269328,"lat":51.5401045,"name":"Bogensport & Mehrzweckplatz TuS Scharnhorst 1895/26 e.V. Dortmund"},{"lon":7.5693199,"lat":51.4947543,"name":"Boltzplatz"},{"lon":7.3817144,"lat":51.5780061,"name":"Bolzplatz"},{"lon":7.5596614,"lat":51.4902389,"name":"Bolzplatz (Rasen)"},{"lon":7.5173795,"lat":51.5083723,"name":"Bombay Curry"},{"lon":7.465899,"lat":51.5164814,"name":"Bon Appetit beim Ägypter"},{"lon":7.461055,"lat":51.5141796,"name":"Bon'n Frietjes"},{"lon":7.4529653,"lat":51.4937395,"name":"Borusseum"},{"lon":7.3804615,"lat":51.4873195,"name":"Borussia-Apotheke"},{"lon":7.5410512,"lat":51.5284487,"name":"Brackel E.v."},{"lon":7.5510708,"lat":51.52371,"name":"Brackel Wanderwege des SGV"},{"lon":7.4679542,"lat":51.5121844,"name":"Brasserie"},{"lon":7.467386,"lat":51.52935,"name":"Brauerei-Museum"},{"lon":7.4653516,"lat":51.5277814,"name":"Braunschweiger Stübchen"},{"lon":7.4614194,"lat":51.5806878,"name":"Brechtener Grundschule"},{"lon":7.4580963,"lat":51.5824812,"name":"Brechtener Pizzeria"},{"lon":7.3752925,"lat":51.5639033,"name":"Briefkasten"},{"lon":7.6073621,"lat":51.5315201,"name":"Briefmarken-Automat"},{"lon":7.4727647,"lat":51.473419,"name":"Brillenbären"},{"lon":7.4668258,"lat":51.5137381,"name":"Brinkhoffs am Markt"},{"lon":7.433735,"lat":51.4748804,"name":"Brüder-Grimm Grundschule"},{"lon":7.4895638,"lat":51.5126479,"name":"Bruder-Jordan-Haus"},{"lon":7.560861,"lat":51.5818051,"name":"Brukterer Grundschule"},{"lon":7.3444523,"lat":51.5775048,"name":"Brunosee"},{"lon":7.4805077,"lat":51.5228225,"name":"Bruscetta"},{"lon":7.5351375,"lat":51.4944878,"name":"BSV Schüren Sportplatz 1"},{"lon":7.5369721,"lat":51.4943035,"name":"BSV Schüren Sportplatz 2"},{"lon":7.450122,"lat":51.502523,"name":"B-Trieb"},{"lon":7.4322195,"lat":51.5115212,"name":"BTZ Dortmund"},{"lon":7.4589213,"lat":51.513733,"name":"Bubble Tea"},{"lon":7.4896613,"lat":51.469145,"name":"Bücherei Wellinghofen"},{"lon":7.4592773,"lat":51.5064103,"name":"Budokan"},{"lon":7.455765,"lat":51.504793,"name":"Buffalo Beef"},{"lon":7.5100452,"lat":51.5166686,"name":"Bui"},{"lon":7.3767368,"lat":51.4982385,"name":"Bundesnetzagentur, Außenstelle Dortmund"},{"lon":7.4587137,"lat":51.517097,"name":"Bundespolizei"},{"lon":7.4871804,"lat":51.5163892,"name":"Burger2you"},{"lon":7.4670471,"lat":51.5106693,"name":"Bürgerdienste Stadt Dortmund"},{"lon":7.4731645,"lat":51.5223949,"name":"Bürgergarten Kleine Heroldwiese"},{"lon":7.3777749,"lat":51.5439449,"name":"Bürgergarten Westerfilde"},{"lon":7.4388496,"lat":51.4696829,"name":"Bürgerkasino"},{"lon":7.3666144,"lat":51.4944177,"name":"Burger King"},{"lon":7.4514006,"lat":51.5056303,"name":"Bürgermeister Lindemann"},{"lon":7.3814446,"lat":51.5462693,"name":"Bürgerwohnung Westerfilde"},{"lon":7.4135935,"lat":51.4824664,"name":"Büro Uni-Filmclub"},{"lon":7.4590577,"lat":51.5196313,"name":"Busbahnhof Dortmund Hauptbahnhof"},{"lon":7.5439273,"lat":51.5476883,"name":"Buschei Grundschule"},{"lon":7.5279884,"lat":51.4785954,"name":"Busenberg-Grundschule"},{"lon":7.4470393,"lat":51.4932483,"name":"B. V. Borrussia Dortmund Trainingsanlage"},{"lon":7.5565077,"lat":51.5389476,"name":"BVB Trainingsgelände"},{"lon":7.556225,"lat":51.5381131,"name":"BVB-Trainingsgelände"},{"lon":7.5603599,"lat":51.5816474,"name":"B.V. Teutonia Dortmund-Lanstrop"},{"lon":7.4658445,"lat":51.5165247,"name":"By X Kebab"},{"lon":7.5048092,"lat":51.4891781,"name":"Cabaret Queue"},{"lon":7.5198841,"lat":51.5242043,"name":"Cada Medoza"},{"lon":7.4772203,"lat":51.4594587,"name":"Cafe"},{"lon":7.3760674,"lat":51.54568,"name":"Café 52 Lounge Bar"},{"lon":7.4693403,"lat":51.5235541,"name":"Café Alfredo"},{"lon":7.4722855,"lat":51.457681,"name":"Cafe am Augustinum"},{"lon":7.4791865,"lat":51.4950679,"name":"Cafe an den Wasserbecken"},{"lon":7.454772,"lat":51.5046543,"name":"Cafe Asemann"},{"lon":7.4991543,"lat":51.4867314,"name":"Café Aufbruch"},{"lon":7.4156745,"lat":51.5367043,"name":"Cafè/Bistro NETZWERK"},{"lon":7.3365106,"lat":51.5003965,"name":"Café Blickpunkt"},{"lon":7.4114984,"lat":51.4916529,"name":"Cafe Che"},{"lon":7.4525413,"lat":51.5053821,"name":"Café Chocolat"},{"lon":7.4691288,"lat":51.5121685,"name":"Cafe Creme"},{"lon":7.4720318,"lat":51.4969333,"name":"Cafe Durchblick"},{"lon":7.4640386,"lat":51.5160259,"name":"Café & Eis Panciera"},{"lon":7.4470074,"lat":51.5091893,"name":"Café Erdmann"},{"lon":7.4182595,"lat":51.4859186,"name":"Cafe Frackträger"},{"lon":7.4511903,"lat":51.506611,"name":"Café Gut tut"},{"lon":7.4701005,"lat":51.5076073,"name":"Café im Wilhelm Hansmann Haus"},{"lon":7.4652497,"lat":51.5266731,"name":"Café Kolibri"},{"lon":7.4751063,"lat":51.5137293,"name":"Cafe Lotte"},{"lon":7.4653318,"lat":51.5052037,"name":"Café Lotte"},{"lon":7.4652991,"lat":51.5280052,"name":"Cafe Malibu"},{"lon":7.4558201,"lat":51.5293659,"name":"Café Mendes Uhlandshof"},{"lon":7.4670257,"lat":51.5248655,"name":"Café Nordstern"},{"lon":7.483107,"lat":51.5132074,"name":"Café Schirmer"},{"lon":7.5063676,"lat":51.4918397,"name":"Café Solo | Solo Factory"},{"lon":7.3815349,"lat":51.5713271,"name":"Cafe Symbol"},{"lon":7.5281428,"lat":51.4745119,"name":"Café TC Berghofen"},{"lon":7.472706,"lat":51.4946941,"name":"Cafe und Bistro Pusteblume"},{"lon":7.3286874,"lat":51.4975275,"name":"Cafe Vosthane"},{"lon":7.5500774,"lat":51.5278604,"name":"Cafe Wellblech"},{"lon":7.4542225,"lat":51.5241532,"name":"Camera Lichtspiele"},{"lon":7.493333,"lat":51.4190263,"name":"Camping Hohensyburg"},{"lon":7.4333792,"lat":51.4820272,"name":"Cano Döner Center"},{"lon":7.4734775,"lat":51.514316,"name":"Capone"},{"lon":7.4657425,"lat":51.5166059,"name":"Cappadocia 4"},{"lon":7.4637351,"lat":51.523289,"name":"Caracalla"},{"lon":7.4116447,"lat":51.529135,"name":"Caritas Altenzentrum St. Antonius"},{"lon":7.3830744,"lat":51.5621507,"name":"Caritasverband Sprachheilkindergarten"},{"lon":7.3933858,"lat":51.5579627,"name":"Caritasverband Tagesstätte St. Stephanus und St. Josef"},{"lon":7.5089381,"lat":51.4767983,"name":"Carlos"},{"lon":7.3544532,"lat":51.4977131,"name":"Carpe Diem Mediteran"},{"lon":7.3859616,"lat":51.5096405,"name":"Casa Asia"},{"lon":7.464888,"lat":51.5279869,"name":"Casa Italia"},{"lon":7.3792918,"lat":51.5105605,"name":"Casa Mia"},{"lon":7.4664591,"lat":51.5217023,"name":"Casa Româneasca"},{"lon":7.539996,"lat":51.5574649,"name":"casino"},{"lon":7.4008475,"lat":51.5489181,"name":"Casino Nette"},{"lon":7.4878279,"lat":51.4218898,"name":"Casino-Parkplatz"},{"lon":7.4644663,"lat":51.5217047,"name":"Casino Royal Spielothek"},{"lon":7.325323,"lat":51.5214442,"name":"Central Apotheke"},{"lon":7.4650028,"lat":51.5276881,"name":"Chaostreff Dortmund e.V."},{"lon":7.4934753,"lat":51.4951642,"name":"Cheesy"},{"lon":7.5490436,"lat":51.5240545,"name":"China Imbis"},{"lon":7.5063445,"lat":51.4795335,"name":"China Imbiss Jade"},{"lon":7.4554019,"lat":51.5197808,"name":"China-Imbiss Nam"},{"lon":7.472072,"lat":51.5141112,"name":"China-Restaurant Lucky"},{"lon":7.4414697,"lat":51.4817884,"name":"China-Restaurant Lung Sing"},{"lon":7.468677,"lat":51.5119725,"name":"Chinba"},{"lon":7.4624609,"lat":51.5165266,"name":"Chip"},{"lon":7.3916779,"lat":51.5584635,"name":"Christ-for-all Evangelistic Ministries"},{"lon":7.4753266,"lat":51.5161564,"name":"Christliche Gemeinde"},{"lon":7.5235135,"lat":51.4444053,"name":"Christopherus-Schule Dortmund"},{"lon":7.4515479,"lat":51.5218752,"name":"Christuskirche"},{"lon":7.4389403,"lat":51.4540458,"name":"Christuskirche Löttringhausen"},{"lon":7.3777289,"lat":51.4873192,"name":"Christus unser Friede"},{"lon":7.3786269,"lat":51.4870801,"name":"Christus unser Friede Kindergarten"},{"lon":7.4527354,"lat":51.5053117,"name":"Church"},{"lon":7.460954,"lat":51.5252607,"name":"Churrasco"},{"lon":7.4513772,"lat":51.5075969,"name":"Chuzo"},{"lon":7.4520264,"lat":51.4999864,"name":"Ciccio`s"},{"lon":7.4650611,"lat":51.5206479,"name":"Cigköftem"},{"lon":7.4608078,"lat":51.5192873,"name":"Cinestar"},{"lon":7.4565656,"lat":51.4616709,"name":"citybäcker"},{"lon":7.3702855,"lat":51.565053,"name":"Citybäcker Feldkamp"},{"lon":7.4816608,"lat":51.5133309,"name":"City-Grill"},{"lon":7.4576686,"lat":51.5134117,"name":"Cityhotel Dortmund"},{"lon":7.3376209,"lat":51.4992531,"name":"City Kebap Haus"},{"lon":7.5028048,"lat":51.4876682,"name":"City Parking"},{"lon":7.3799116,"lat":51.5097136,"name":"City Toilette"},{"lon":7.4689425,"lat":51.512359,"name":"City-Treff"},{"lon":7.4671287,"lat":51.5163229,"name":"Citywache"},{"lon":7.4133019,"lat":51.5307305,"name":"City-WC"},{"lon":7.5736212,"lat":51.505227,"name":"Classic Tank"},{"lon":7.3720644,"lat":51.5227659,"name":"Clovis"},{"lon":7.4739373,"lat":51.5146909,"name":"Club Down Under"},{"lon":7.4659221,"lat":51.511749,"name":"coa Asian Food & Drinks"},{"lon":7.4604008,"lat":51.5173089,"name":"Coffee Fellows"},{"lon":7.522949,"lat":51.5189114,"name":"Comenius-Grundschule"},{"lon":7.3823291,"lat":51.571305,"name":"Commerzbank"},{"lon":7.3250157,"lat":51.5210685,"name":"Commerz Stuben"},{"lon":7.4311932,"lat":51.4781059,"name":"Concilium"},{"lon":7.4657545,"lat":51.5143682,"name":"Corso-Apotheke"},{"lon":7.4662026,"lat":51.5139726,"name":"Cotton's"},{"lon":7.3133202,"lat":51.5198608,"name":"Cranenhof"},{"lon":7.452637,"lat":51.5084923,"name":"Cream Eiscafé"},{"lon":7.4513915,"lat":51.5196908,"name":"Croco's Pizza-Express"},{"lon":7.4299117,"lat":51.4738629,"name":"Crossfit Dortmund"},{"lon":7.5233372,"lat":51.4922073,"name":"Crossfit Tremonia"},{"lon":7.462645,"lat":51.5152873,"name":"CU Bar"},{"lon":7.586455,"lat":51.4928324,"name":"Curry Cef"},{"lon":7.5260063,"lat":51.5039817,"name":"CURRYDELUXE"},{"lon":7.4589128,"lat":51.5136488,"name":"Curry Karl"},{"lon":7.4689009,"lat":51.5157406,"name":"Curry Meister"},{"lon":7.4666621,"lat":51.4966741,"name":"D1"},{"lon":7.4800675,"lat":51.4923427,"name":"Daddy Blatzheim"},{"lon":7.4540324,"lat":51.578456,"name":"Da Enzo"},{"lon":7.3809867,"lat":51.5098986,"name":"Dai Phong"},{"lon":7.3232505,"lat":51.50826,"name":"Da Luigi"},{"lon":7.4487202,"lat":51.5064547,"name":"Da Michele"},{"lon":7.4659641,"lat":51.5164296,"name":"D'Angelo"},{"lon":7.5542554,"lat":51.4879549,"name":"Da Nino"},{"lon":7.5543396,"lat":51.4880617,"name":"Da Nino (Außengastronomie)"},{"lon":7.4940538,"lat":51.4880054,"name":"Dani's Grill"},{"lon":7.4718816,"lat":51.4574906,"name":"Da Potito"},{"lon":7.5867268,"lat":51.5280337,"name":"Da Rocco"},{"lon":7.4224157,"lat":51.4984124,"name":"DASA Arbeitswelt Ausstellung"},{"lon":7.4201756,"lat":51.4987248,"name":"DASA Arbeitswelt Austellung"},{"lon":7.4207592,"lat":51.4982587,"name":"DASA - Deutsche Arbeitsschutzausstellung"},{"lon":7.3800309,"lat":51.570968,"name":"Da Salvatore"},{"lon":7.4139497,"lat":51.4829832,"name":"David's Dortmund"},{"lon":7.4169437,"lat":51.5010588,"name":"DAV Kletterturm"},{"lon":7.3249892,"lat":51.5210078,"name":"Days Inn"},{"lon":7.4594272,"lat":51.5173731,"name":"DB Information"},{"lon":7.459109,"lat":51.5172669,"name":"DB Reisezentrum"},{"lon":7.4686007,"lat":51.5167713,"name":"Deep Dish"},{"lon":7.4098015,"lat":51.4811195,"name":"Deep Pan Factory"},{"lon":7.3759524,"lat":51.5092179,"name":"Déjà Vu"},{"lon":7.461429,"lat":51.5043193,"name":"Delikat"},{"lon":7.3371511,"lat":51.5025429,"name":"Dellwigschule, Förderschule"},{"lon":7.4522402,"lat":51.5080784,"name":"Delphi Grill"},{"lon":7.4756131,"lat":51.5136755,"name":"Delphin-Apotheke"},{"lon":7.4624399,"lat":51.5494608,"name":"Delta Apotheke"},{"lon":7.4582166,"lat":51.5139525,"name":"DenizBank AG"},{"lon":7.4571826,"lat":51.4539437,"name":"Dentlounge"},{"lon":7.4534887,"lat":51.5329406,"name":"Depothek"},{"lon":7.4623586,"lat":51.5205787,"name":"Der Dortmunder Puff"},{"lon":7.5339105,"lat":51.4805932,"name":"Der Lichtstein"},{"lon":7.522833,"lat":51.5691635,"name":"Derner Marktplatz"},{"lon":7.465473,"lat":51.5139458,"name":"Der Thüringer"},{"lon":7.4667857,"lat":51.5141119,"name":"Der Thüringer Curry"},{"lon":7.3822396,"lat":51.5719918,"name":"Derya Grill"},{"lon":7.4894811,"lat":51.4757786,"name":"Desinfektion"},{"lon":7.427228,"lat":51.5496359,"name":"Deusener Pizzeria"},{"lon":7.447015,"lat":51.4351494,"name":"Deutsche Alleenstraße, Abschnitt 10 (Dortmund - Bad Honnef)"},{"lon":7.4723436,"lat":51.4990023,"name":"Deutsche Alleenstraße, Abschnitt 9 (Höxter - Dortmund)"},{"lon":7.4212831,"lat":51.498271,"name":"Deutsche Arbeitsschutzausstellung"},{"lon":7.3361167,"lat":51.5003773,"name":"Deutsche Bank"},{"lon":7.4587737,"lat":51.5115683,"name":"Deutsche Bundesbank Filiale Dortmund"},{"lon":7.4376639,"lat":51.4764404,"name":"Deutsche Post"},{"lon":7.4146658,"lat":51.5317647,"name":"Deutsche Post Agentur"},{"lon":7.3819607,"lat":51.5083289,"name":"Deutsche Post Filiale Marten"},{"lon":7.4579327,"lat":51.516226,"name":"Deutsches Fußballmuseum"},{"lon":7.4638679,"lat":51.5275828,"name":"Deutsch-Türkisches Bistro Cafe"},{"lon":7.4569237,"lat":51.5136974,"name":"DG 2 for your smile"},{"lon":7.5677471,"lat":51.5007135,"name":"DHL Geschäftspost-Annahme"},{"lon":7.6101738,"lat":51.5319522,"name":"DHL Packstation 110"},{"lon":7.5094119,"lat":51.5243873,"name":"DHL Packstation 111"},{"lon":7.3742819,"lat":51.5631112,"name":"Dickrath"},{"lon":7.4707855,"lat":51.5144457,"name":"Die Braterei"},{"lon":7.4686712,"lat":51.4317733,"name":"Dieckmann's"},{"lon":7.4917952,"lat":51.4876465,"name":"Die Dönerbude"},{"lon":7.4640055,"lat":51.5030856,"name":"Die Kleine Taverne"},{"lon":7.5279082,"lat":51.5290649,"name":"Diesel Automatenzapfsäule"},{"lon":7.4684198,"lat":51.5224687,"name":"Diesterweg-Grundschule"},{"lon":7.5167434,"lat":51.5740044,"name":"Dietrich-Bonhoeffer-Grundschule"},{"lon":7.460247,"lat":51.5216005,"name":"Dietrich-Keuning-Haus"},{"lon":7.4784185,"lat":51.4763743,"name":"Dilay"},{"lon":7.4549518,"lat":51.4586618,"name":"Dimberger Glocke"},{"lon":7.3252109,"lat":51.5203981,"name":"Dionysos Grill"},{"lon":7.5294319,"lat":51.5489366,"name":"Distel Apotheke"},{"lon":7.4652383,"lat":51.5141216,"name":"Ditsch"},{"lon":7.4090305,"lat":51.4811446,"name":"Divan Restaurant"},{"lon":7.4527141,"lat":51.50831,"name":"Dixon's Kitchen"},{"lon":7.5511518,"lat":51.4871924,"name":"DJK Ewaldi Aplerbeck 1930 e.V."},{"lon":7.4974548,"lat":51.4895241,"name":"DLRG Bezirk Dortmund e.V."},{"lon":7.4793979,"lat":51.4180091,"name":"DLRG-Rettungswache Hengsteysee"},{"lon":7.458467,"lat":51.5151021,"name":"DOC - Dortmunder Centrum für Medizin und Gesundheit"},{"lon":7.4640026,"lat":51.5118163,"name":"Doc Morris"},{"lon":7.5452695,"lat":51.5771944,"name":"DOGA - Dortmunder Gesellschaft für Abfall mbH"},{"lon":7.4601333,"lat":51.5046953,"name":"Dogan Grill"},{"lon":7.4309541,"lat":51.4768505,"name":"Doğuş Kebaphaus"},{"lon":7.4577263,"lat":51.5138834,"name":"Dolce Vita Gelato & Caffè"},{"lon":7.4162518,"lat":51.5302618,"name":"Domschänke"},{"lon":7.436999,"lat":51.4751211,"name":"Don Camillo"},{"lon":7.4509454,"lat":51.5215569,"name":"Dönergrill Naim Esmir Tasdere"},{"lon":7.6125699,"lat":51.5326499,"name":"Dö-Pi"},{"lon":7.4148698,"lat":51.5313489,"name":"Dorf-Apotheke"},{"lon":7.5517473,"lat":51.5627818,"name":"Dorf Cafe"},{"lon":7.5474979,"lat":51.5240071,"name":"Dorfkirche Brackel"},{"lon":7.3664506,"lat":51.487996,"name":"Dorfkrug"},{"lon":7.367103,"lat":51.4878157,"name":"Dorney Apotheke"},{"lon":7.3732826,"lat":51.4794116,"name":"Dorney-Sportplatz"},{"lon":7.4250114,"lat":51.499906,"name":"Dorstfeld-Süd"},{"lon":7.4658161,"lat":51.5106591,"name":"Dortmund-Agentur"},{"lon":7.4339594,"lat":51.5417803,"name":"Dortmund-Deusen"},{"lon":7.4360618,"lat":51.5555952,"name":"Dortmund-Ellinghausen"},{"lon":7.3738045,"lat":51.5149225,"name":"Dortmunder Blankstahl"},{"lon":7.4763943,"lat":51.4363778,"name":"Dortmunder Golfclub e.V."},{"lon":7.5053648,"lat":51.515981,"name":"Dortmunder Nashorn"},{"lon":7.4530561,"lat":51.5151675,"name":"Dortmunder U – Zentrum für Kunst und Kreativität"},{"lon":7.5423373,"lat":51.5231449,"name":"Dortmunder Vereinsbank"},{"lon":7.4419589,"lat":51.4756265,"name":"Dortmunder Volksbank"},{"lon":7.382616,"lat":51.5095156,"name":"Dortmunder Volksbank eG"},{"lon":7.4638499,"lat":51.5049595,"name":"Dortmunder Volksbank eG Saarlandstraße"},{"lon":7.4600485,"lat":51.5171235,"name":"Dortmund Hauptbahnhof"},{"lon":7.4226235,"lat":51.541178,"name":"Dortmund-Huckarde"},{"lon":7.4680684,"lat":51.51209,"name":"Dortmund-Nashorn"},{"lon":7.5010141,"lat":51.503623,"name":"Dortmund-Nashorn BVB (Ruhrgrund)"},{"lon":7.5150911,"lat":51.5032038,"name":"Dortmund-Nashorn Four Gates"},{"lon":7.4593575,"lat":51.5147513,"name":"Dortmund Tourismus"},{"lon":7.491948,"lat":51.5269419,"name":"Dortmund Wanderers e.V."},{"lon":7.549401,"lat":51.5241345,"name":"DPD Paketshop"},{"lon":7.3299173,"lat":51.5025577,"name":"Dr. Akin Kara, Dr. Cornelia Hecht-Seidel, ..."},{"lon":7.3277092,"lat":51.5000997,"name":"Dr. Andrea Ronfeld, Chirurgin"},{"lon":7.5226201,"lat":51.4645529,"name":"Dr. Andreas Küper, Dr. Stephan Küper, Zahnärzte"},{"lon":7.5223065,"lat":51.5211558,"name":"Dr. Bartling"},{"lon":7.4952248,"lat":51.4648349,"name":"Dr. Bernd Müller"},{"lon":7.464909,"lat":51.5085393,"name":"Dr. Birgit Hossenfelder Tierärztin"},{"lon":7.445323,"lat":51.5106103,"name":"Drei-Bäume-Park"},{"lon":7.489343,"lat":51.4690888,"name":"Dreieinigkeitskirche"},{"lon":7.4713884,"lat":51.5104315,"name":"Dreifachturnhalle"},{"lon":7.4632574,"lat":51.5233543,"name":"Drei Kronen"},{"lon":7.4375458,"lat":51.5329739,"name":"Drekopf Recyclinzentrum Dortmund"},{"lon":7.4391163,"lat":51.5330527,"name":"Drekopf Wertstoffhof"},{"lon":7.4619429,"lat":51.509827,"name":"Dr. Fellmann & Kollegen"},{"lon":7.3277069,"lat":51.5000254,"name":"Dr. Gerrett Brief, Augenarzt"},{"lon":7.442721,"lat":51.4745228,"name":"Dr. Grapow"},{"lon":7.4390464,"lat":51.4754494,"name":"Dr. Holten & Dr. Platte-Holten"},{"lon":7.5337326,"lat":51.4924498,"name":"DRK Ausbildungszentrum Schüren"},{"lon":7.4602538,"lat":51.5092786,"name":"Dr. med. dent. Barbara Lehmann"},{"lon":7.3781486,"lat":51.5720603,"name":"Dr. med. dent. Ingo Herminghaus"},{"lon":7.5345746,"lat":51.4784596,"name":"Dr. med. dent. Kai Neuhaus"},{"lon":7.50643,"lat":51.5161054,"name":"Dr. med. Fleischer, Zahnarzt"},{"lon":7.3223402,"lat":51.5150226,"name":"Dr. med. Georg Stefan von Werden"},{"lon":7.3819079,"lat":51.571251,"name":"Dr.med. Jochen Kramann"},{"lon":7.324847,"lat":51.5025347,"name":"Dr.med.Martin Reichell"},{"lon":7.5215223,"lat":51.4647625,"name":"Dr. med. Michael Keyser"},{"lon":7.3818303,"lat":51.5719086,"name":"Dr. med. R. Hornung Internist"},{"lon":7.3363471,"lat":51.5190849,"name":"Dr. med Udo Boldt & Heike Rauser-Boldt"},{"lon":7.4763143,"lat":51.4587267,"name":"Dr. M.-M. Werneke-Schmidt"},{"lon":7.4427261,"lat":51.4746437,"name":"Dr. Nagel"},{"lon":7.4243139,"lat":51.5124479,"name":"Dr. Ortmann"},{"lon":7.3603471,"lat":51.5178769,"name":"Droste-Hülshoff-Realschule"},{"lon":7.5477335,"lat":51.5231577,"name":"Dr. Pott"},{"lon":7.3147488,"lat":51.5051097,"name":"Dr. Thomas Bruckmann"},{"lon":7.3774037,"lat":51.5698892,"name":"DSW21 intern"},{"lon":7.4593044,"lat":51.5175491,"name":"Dunkin Donuts"},{"lon":7.4251253,"lat":51.4884604,"name":"eastend"},{"lon":7.4633668,"lat":51.5795028,"name":"eat"},{"lon":7.4637519,"lat":51.5475257,"name":"eatalio"},{"lon":7.4614604,"lat":51.5359478,"name":"Ebertplatz/Festwiese"},{"lon":7.6129764,"lat":51.5328154,"name":"Eddys Eis Oase"},{"lon":7.4572298,"lat":51.4541818,"name":"Edeka -Markt"},{"lon":7.422187,"lat":51.5413332,"name":"EDG Mountainbike Arena - Besucherparkplatz"},{"lon":7.4197496,"lat":51.5453371,"name":"EDG Mountainbike Arena Deusenberg"},{"lon":7.4521838,"lat":51.5228691,"name":"EFE'M Holzofen Pizzeria"},{"lon":7.4845198,"lat":51.4914447,"name":"Ehem. Deponie Hympendahl"},{"lon":7.4910786,"lat":51.4954798,"name":"ehem. Zeche \"Am Schwaben\""},{"lon":7.5973989,"lat":51.4776418,"name":"Eichholz-Apotheke"},{"lon":7.5227917,"lat":51.4642476,"name":"Eichhorn-Apotheke"},{"lon":7.4086904,"lat":51.4785428,"name":"Eichlinghofer Grundschule"},{"lon":7.5928923,"lat":51.5561351,"name":"Eichwald Grundschule"},{"lon":7.5902526,"lat":51.5546144,"name":"Eichwaldstadion"},{"lon":7.6095764,"lat":51.53216,"name":"Eichwaldstraße"},{"lon":7.3834357,"lat":51.5152956,"name":"Ein Bach unter Kontrolle"},{"lon":7.3468729,"lat":51.511196,"name":"Einheimische Singvögel"},{"lon":7.4093743,"lat":51.5201879,"name":"Ein Jagdrevier sackt ab"},{"lon":7.4409196,"lat":51.4579893,"name":"Einkaufszentrum"},{"lon":7.4639044,"lat":51.5153247,"name":"Einkehr bei Lena"},{"lon":7.5227677,"lat":51.4438345,"name":"Eintracht Grundschule"},{"lon":7.3354404,"lat":51.5001256,"name":"Eis Boutique Romano"},{"lon":7.3256167,"lat":51.5205913,"name":"Eis Cafe"},{"lon":7.3733661,"lat":51.5448765,"name":"Eiscafé Claudio"},{"lon":7.3819459,"lat":51.5714121,"name":"Eiscafe Dolomiti"},{"lon":7.5530182,"lat":51.4938899,"name":"Eiscafé Eiszauber"},{"lon":7.4643367,"lat":51.5221049,"name":"Eiscafee Martin"},{"lon":7.505301,"lat":51.4918187,"name":"Eiscafe Factory"},{"lon":7.4530761,"lat":51.5231405,"name":"Eiscafe Gamba"},{"lon":7.4687839,"lat":51.513173,"name":"Eiscafe Giro"},{"lon":7.4511986,"lat":51.5135666,"name":"Eiscafé Losego"},{"lon":7.4512409,"lat":51.506448,"name":"Eiscafe Majer"},{"lon":7.4564938,"lat":51.4543511,"name":"Eiscafe Panciera"},{"lon":7.3825579,"lat":51.5092459,"name":"Eiscafé Pieruz"},{"lon":7.4245986,"lat":51.5128654,"name":"Eiscafé Pina"},{"lon":7.5066331,"lat":51.5156387,"name":"Eiscafé San Remo"},{"lon":7.5972765,"lat":51.5601232,"name":"Eiscafe Tiamo"},{"lon":7.4685275,"lat":51.5164344,"name":"Eiscafe Tuttifrutti"},{"lon":7.5010558,"lat":51.4885309,"name":"Eiscafe und Pizzeria Torino"},{"lon":7.5433159,"lat":51.5231967,"name":"Eiscafé Zanoulli"},{"lon":7.4681416,"lat":51.514595,"name":"Eisdiele Dolce Vita"},{"lon":7.3301124,"lat":51.5054948,"name":"Eisenbarth"},{"lon":7.4356506,"lat":51.4750191,"name":"Eiserner Julius"},{"lon":7.4686297,"lat":51.5141152,"name":"Eis Factory"},{"lon":7.5567282,"lat":51.49302,"name":"Eis Gamba"},{"lon":7.5602551,"lat":51.4826368,"name":"Eislädchen & Manufaktur"},{"lon":7.4071406,"lat":51.5203702,"name":"Eissporthalle"},{"lon":7.4582931,"lat":51.4951875,"name":"Eissportzentrum Westfalen"},{"lon":7.4863686,"lat":51.4722289,"name":"Eis- & Tortenzauber"},{"lon":7.4622924,"lat":51.5046198,"name":"Eiswerk"},{"lon":7.5355681,"lat":51.4782606,"name":"Eiszeit bei Bruno (Eisdiele)"},{"lon":7.3880175,"lat":51.5092791,"name":"El Cadoro"},{"lon":7.4160525,"lat":51.4934945,"name":"eldoradio*"},{"lon":7.4848578,"lat":51.5130565,"name":"Elefanten Apotheke"},{"lon":7.471494,"lat":51.5118351,"name":"El Fulanito"},{"lon":7.5496069,"lat":51.492562,"name":"El Greco Grill"},{"lon":7.467267,"lat":51.5555385,"name":"Elisabeth-Grundschule"},{"lon":7.5471556,"lat":51.5028336,"name":"Elisabeth-Klinik"},{"lon":7.4736479,"lat":51.5310684,"name":"Elite Lounge"},{"lon":7.4547164,"lat":51.5054779,"name":"El Mundo"},{"lon":7.3909449,"lat":51.5249441,"name":"Elterninitiative Ev. Kiga-Verein Rahm-Kirchlinde"},{"lon":7.4184858,"lat":51.4734845,"name":"Ema's Pfeffermühle"},{"lon":7.4529745,"lat":51.5001763,"name":"emBedo"},{"lon":7.4175613,"lat":51.4943437,"name":"Emil-Figge-Bibliothek"},{"lon":7.4382647,"lat":51.5124475,"name":"Emmi Grill & Restaurant"},{"lon":7.5387522,"lat":51.497262,"name":"Emscher-Apotheke"},{"lon":7.3541559,"lat":51.5834022,"name":"Emscherdelta"},{"lon":7.5167488,"lat":51.4915728,"name":"Emschergestaltung"},{"lon":7.4871744,"lat":51.4922135,"name":"Emscherpromenade im Westfalenpark"},{"lon":7.5591867,"lat":51.4911401,"name":"Emscherschule Aplerbeck (Hauptschule)"},{"lon":7.5844486,"lat":51.4985782,"name":"Emschertal Grundschule"},{"lon":7.5613469,"lat":51.4949928,"name":"Entenhaus Asia"},{"lon":7.4743591,"lat":51.5172253,"name":"Epsilon"},{"lon":7.5474562,"lat":51.5282031,"name":"Erich Kästner Grundschule"},{"lon":7.5145298,"lat":51.4569568,"name":"Ernst-Figgen-Wurfplatz"},{"lon":7.4716936,"lat":51.4732927,"name":"Esel"},{"lon":7.4688807,"lat":51.5175714,"name":"Esplanade"},{"lon":7.4598026,"lat":51.5151831,"name":"Espresso Bar"},{"lon":7.5056799,"lat":51.4899089,"name":"Espresso Perfecto"},{"lon":7.4206213,"lat":51.5304738,"name":"Esso"},{"lon":7.4477813,"lat":51.5114024,"name":"Eugen-Krautscheid-Haus"},{"lon":7.4741732,"lat":51.5125022,"name":"Eurasia"},{"lon":7.5321083,"lat":51.511425,"name":"Europaschule Dortmund"},{"lon":7.5353624,"lat":51.492327,"name":"Evangelische Kirche Altschüren"},{"lon":7.4399293,"lat":51.4760139,"name":"Evangelische Kirche am Markt"},{"lon":7.4038377,"lat":51.4827605,"name":"Evangelische Kirche Eichlinghofen"},{"lon":7.5994755,"lat":51.5610012,"name":"Evangelische Kirche Husen"},{"lon":7.565873,"lat":51.5800788,"name":"Evangelische Kirche Lanstrop"},{"lon":7.544469,"lat":51.4974316,"name":"Evangelische Kirche Neuschüren"},{"lon":7.3837313,"lat":51.4871508,"name":"Evangelische Kirche Oespel"},{"lon":7.5886162,"lat":51.4977465,"name":"Evangelische Kirche Sölde"},{"lon":7.3874451,"lat":51.5630164,"name":"Evangelische Noah-Kirchengemeinde Dortmund-Nette"},{"lon":7.4604978,"lat":51.4541631,"name":"Evangelische Patrokluskirche"},{"lon":7.4516589,"lat":51.4766043,"name":"Evangelischer Kindergarten"},{"lon":7.4272019,"lat":51.4832025,"name":"Evangelischer Kindergarten Barop"},{"lon":7.531893,"lat":51.4759249,"name":"Evangelischer Kindergarten Berghofen"},{"lon":7.3233755,"lat":51.5221027,"name":"Evangelischer Kindergarten Bövinghausen"},{"lon":7.380208,"lat":51.5089832,"name":"Evangelischer Kindergarten Immanuel"},{"lon":7.3811186,"lat":51.5321374,"name":"Evangelischer Kindergarten Jungferntal / Rahm"},{"lon":7.5067148,"lat":51.5570125,"name":"Evangelischer Kindergarten Kirchderne"},{"lon":7.5233505,"lat":51.4644112,"name":"Evangelischer Kindergarten Syburg auf dem Höchsten"},{"lon":7.3875152,"lat":51.5631702,"name":"Evangelisches Gemeindezentrum Nette"},{"lon":7.3297054,"lat":51.502806,"name":"Evangelisches Krankenhaus Lütgendortmund"},{"lon":7.3850166,"lat":51.5746881,"name":"Evangelische St. Remigius-Kirche Mengede"},{"lon":7.3859144,"lat":51.5748622,"name":"Evangelische Tageseinrichtung für Kinder „Emscherwichtel“"},{"lon":7.4039863,"lat":51.527205,"name":"Evangelisch Freikirchliche Gemeinde Dortmund-Huckarde"},{"lon":7.5906815,"lat":51.5285861,"name":"Ev. Familienzentrum Arche"},{"lon":7.4692413,"lat":51.5495109,"name":"Eving Selimiye Camii"},{"lon":7.3661163,"lat":51.5654705,"name":"Ev. Kindergarten"},{"lon":7.3855371,"lat":51.5588688,"name":"Ev. Kindergarten Nette"},{"lon":7.5441572,"lat":51.5307783,"name":"Ev. Kindergarten Regenbogenhaus"},{"lon":7.458673,"lat":51.5100583,"name":"Ev. Kindergarten St. Petri"},{"lon":7.5956517,"lat":51.5551022,"name":"ev. Kindergarten unter dem Apfelbaum"},{"lon":7.5586952,"lat":51.5356573,"name":"Ev. Kindertageseinrichtung Hohenbuschei"},{"lon":7.4943868,"lat":51.4827537,"name":"Ev. Kindertagesstätte \"Zum guten Hirten\""},{"lon":7.5573136,"lat":51.4949872,"name":"Ewaldipark"},{"lon":7.5332033,"lat":51.5053832,"name":"Express by Holiday Inn"},{"lon":7.4631998,"lat":51.5264539,"name":"Eyüp Sultan Moschee"},{"lon":7.6250469,"lat":51.5423344,"name":"FABIDO DORTMUND"},{"lon":7.4436099,"lat":51.5536378,"name":"FABIDO Kindergarten"},{"lon":7.4525462,"lat":51.5127826,"name":"FABIDO Kindergarten Lange Straße"},{"lon":7.4680612,"lat":51.5539278,"name":"Fabido KITA"},{"lon":7.5028226,"lat":51.5131241,"name":"FABIDO Tageseinrichtung für Kinder"},{"lon":7.3724684,"lat":51.5683412,"name":"Facharztpraxis für Allgemeinmedizin, Lehrpraxis der Uni Bochum"},{"lon":7.401261,"lat":51.4907064,"name":"Fachhochschschule für öffentliche Verwaltung (FHöV) NRW (Campus Dortmund)"},{"lon":7.4129341,"lat":51.4919583,"name":"Fachhochschule Dortmund"},{"lon":7.4201971,"lat":51.4940693,"name":"Fachhochschule Dortmund - Standort Emil-Figge-Straße"},{"lon":7.3813202,"lat":51.5706152,"name":"Fachverlag Dr. Helmut Arnold GmbH"},{"lon":7.5404288,"lat":51.5037483,"name":"Fahrrad-Rastplatz"},{"lon":7.5638924,"lat":51.4908699,"name":"Fahrrad-Unterstand"},{"lon":7.4567763,"lat":51.4620096,"name":"Fahrschule Cramer"},{"lon":7.5242779,"lat":51.4641858,"name":"Fahrschule Gehrlach"},{"lon":7.4812988,"lat":51.5012397,"name":"Fahrschule Gerlach"},{"lon":7.3997089,"lat":51.5287241,"name":"Fahrschule Heinz Lischewski"},{"lon":7.382175,"lat":51.5722536,"name":"Fahrschule Nobert Zimmermann"},{"lon":7.5430322,"lat":51.4922653,"name":"Fahrschule Petra Brand"},{"lon":7.3825949,"lat":51.5094125,"name":"Fahrschule Szymanski"},{"lon":7.4179574,"lat":51.4940803,"name":"Fakultät Rehabilitationswissenschaften"},{"lon":7.4430148,"lat":51.5128838,"name":"Falken Apotheke"},{"lon":7.4950341,"lat":51.466809,"name":"Familienzentrum Wellinghofen"},{"lon":7.4816436,"lat":51.5008738,"name":"Fanzy"},{"lon":7.5062839,"lat":51.4910329,"name":"FAPS"},{"lon":7.3738678,"lat":51.5451516,"name":"Feierabend"},{"lon":7.4403157,"lat":51.4758702,"name":"Feines"},{"lon":7.4764081,"lat":51.4967177,"name":"Fernsehturm Florian"},{"lon":7.4614608,"lat":51.5206571,"name":"Feuer- und Rettungswache 1 - Stadtmitte"},{"lon":7.453814,"lat":51.5450854,"name":"Feuer- und Rettungswache 2 - Lindenhorst"},{"lon":7.4902036,"lat":51.4758838,"name":"Feuer-und Rettungswache 4 - Hörde"},{"lon":7.3781745,"lat":51.5130094,"name":"Feuer- und Rettungswache 5"},{"lon":7.37752,"lat":51.5127578,"name":"Feuer- und Rettungswache 5 - Marten"},{"lon":7.6042236,"lat":51.5114717,"name":"Feuer- und Rettungswache 7 - Airport21"},{"lon":7.3956621,"lat":51.4815564,"name":"Feuer- und Rettungswache 8 - Eichlinghofen"},{"lon":7.433866,"lat":51.5341874,"name":"Feuerwache 2b - Hafenstützpunkt"},{"lon":7.4530782,"lat":51.5449166,"name":"Feuerwache 2 - Sportplatz"},{"lon":7.5637423,"lat":51.511126,"name":"Feuerwache 3 - Neu-Asseln"},{"lon":7.5636902,"lat":51.5109793,"name":"Feuerwache 3 Neu-Asseln"},{"lon":7.5390761,"lat":51.5522715,"name":"Feuerwache 6 - Scharnhorst"},{"lon":7.5595242,"lat":51.515385,"name":"Fichte-Grundschule"},{"lon":7.4314302,"lat":51.4945523,"name":"Figgestube"},{"lon":7.5536039,"lat":51.4913609,"name":"Filmbühne zur Postkutsche"},{"lon":7.4064682,"lat":51.5003846,"name":"Fine-Frau-Grundschule"},{"lon":7.4800322,"lat":51.5238808,"name":"Finken Apotheke"},{"lon":7.4591455,"lat":51.517949,"name":"Fish'n'Rail"},{"lon":7.3735141,"lat":51.5194749,"name":"Fitnessplace"},{"lon":7.506539,"lat":51.4873836,"name":"FitX Fitnessstudio"},{"lon":7.4642251,"lat":51.5156147,"name":"Flayva Coffee and Tea Lounge"},{"lon":7.4612802,"lat":51.5171293,"name":"Fledermaus"},{"lon":7.4422517,"lat":51.4756668,"name":"Fleming Apotheke"},{"lon":7.4537839,"lat":51.5105328,"name":"Fletch Bizzel"},{"lon":7.3329992,"lat":51.499209,"name":"Flora Apotheke"},{"lon":7.4765895,"lat":51.4966212,"name":"Florianturm"},{"lon":7.5250067,"lat":51.4867692,"name":"Flüsterbrücke"},{"lon":7.4656365,"lat":51.5161535,"name":"FOOD Brother"},{"lon":7.4163778,"lat":51.4935317,"name":"food fakultät"},{"lon":7.3349693,"lat":51.5176669,"name":"Förderturm"},{"lon":7.5343765,"lat":51.4779652,"name":"Fotostudio und Postamt"},{"lon":7.4971961,"lat":51.4818608,"name":"Franco`s Pastaria"},{"lon":7.4467922,"lat":51.4352105,"name":"Frankys"},{"lon":7.4931355,"lat":51.5121912,"name":"Franziskus-Grundschule"},{"lon":7.437257,"lat":51.4858849,"name":"Franziskus-Xaverius-Kirche"},{"lon":7.4569936,"lat":51.5513768,"name":"Franz-Stock-Platz"},{"lon":7.4631447,"lat":51.5167215,"name":"Frau Weber kocht"},{"lon":7.4362525,"lat":51.5410753,"name":"Fredenbaumpark"},{"lon":7.5022764,"lat":51.574694,"name":"Freibad Derne"},{"lon":7.4398914,"lat":51.466919,"name":"Freibad Froschloch"},{"lon":7.434542,"lat":51.5503585,"name":"Freibad Hardenberg Deusen"},{"lon":7.5009094,"lat":51.4671303,"name":"Freibad Wellinghofen"},{"lon":7.4988475,"lat":51.5152105,"name":"Freie evangelische Gemeinde Dortmund"},{"lon":7.4499354,"lat":51.5181148,"name":"Freie Tankstelle"},{"lon":7.4136279,"lat":51.4815897,"name":"Freie Tankstelle Klink"},{"lon":7.5976701,"lat":51.4781897,"name":"Freie Tankstelle Wolfgang Bahl"},{"lon":7.4641846,"lat":51.5200958,"name":"Freiherr-vom-Stein-Platz"},{"lon":7.3237098,"lat":51.518588,"name":"Freiligrath Grundschule"},{"lon":7.4036457,"lat":51.4756584,"name":"Friedhof Eichlinghofen"},{"lon":7.3672923,"lat":51.5224739,"name":"Friedhofskapelle"},{"lon":7.5818762,"lat":51.5021758,"name":"Friedhof Sölde"},{"lon":7.3734936,"lat":51.5548075,"name":"Friedhof Wachteloh"},{"lon":7.5362619,"lat":51.4993709,"name":"Friedrich-Ebert-Grundschule"},{"lon":7.4590548,"lat":51.5137189,"name":"Frietjes van Holland"},{"lon":7.472015,"lat":51.5181962,"name":"Fritz-Henßler-Berufskolleg"},{"lon":7.4695814,"lat":51.5175696,"name":"Fritz-Henßler-Berufskolleg - Bauabteilung"},{"lon":7.4700486,"lat":51.5175778,"name":"Fritz-Henßler-Haus"},{"lon":7.5288407,"lat":51.524486,"name":"Froebelschule"},{"lon":7.4993536,"lat":51.4999296,"name":"Frohe Arbeit"},{"lon":7.4492591,"lat":51.5041074,"name":"Froilein Meier"},{"lon":7.4676568,"lat":51.4709301,"name":"Fuchsmangusten"},{"lon":7.421098,"lat":51.5091515,"name":"Funkeschule"},{"lon":7.5591995,"lat":51.5136308,"name":"Funkturm-Apotheke"},{"lon":7.4978979,"lat":51.5177711,"name":"Fußballplatz ÖSG Viktoria"},{"lon":7.4500629,"lat":51.5149994,"name":"FZW"},{"lon":7.4148329,"lat":51.492716,"name":"Galerie"},{"lon":7.4965113,"lat":51.4839213,"name":"Galerie Ermlinghofen"},{"lon":7.4597405,"lat":51.5022756,"name":"Galerie Gedankengänge"},{"lon":7.4685078,"lat":51.5136336,"name":"Galerie Lamers"},{"lon":7.467193,"lat":51.5139933,"name":"Gänsemarkt"},{"lon":7.4564198,"lat":51.5166133,"name":"Garagenanlage DO HBF"},{"lon":7.6141501,"lat":51.5372761,"name":"Garten der Generationen"},{"lon":7.3692833,"lat":51.5249815,"name":"Gas Station"},{"lon":7.4002022,"lat":51.4936234,"name":"Gästeparkplatz"},{"lon":7.4091305,"lat":51.4897651,"name":"Gästeparkplatz MPI"},{"lon":7.5264111,"lat":51.4441787,"name":"Gasthaus Ledendecker"},{"lon":7.5455369,"lat":51.5281727,"name":"Gasthaus Pape"},{"lon":7.4462576,"lat":51.4848919,"name":"Gasthaus zur Quelle"},{"lon":7.6142881,"lat":51.53256,"name":"Gaststätte Alter Hellweg"},{"lon":7.5643175,"lat":51.4889792,"name":"Gaststätte Center Court"},{"lon":7.444545,"lat":51.4804001,"name":"Gaststätte Goldener Erntekranz"},{"lon":7.5342317,"lat":51.4779869,"name":"Gaststätte \"Haus Heimsoth\""},{"lon":7.4700193,"lat":51.5224792,"name":"Gaststätte Lücht"},{"lon":7.4370614,"lat":51.4687339,"name":"Gaststätte Puschnik"},{"lon":7.4438553,"lat":51.5361573,"name":"Gaststätte Schmiedingslust"},{"lon":7.4405502,"lat":51.5036909,"name":"Gaststätte Tremonia"},{"lon":7.3842392,"lat":51.5734224,"name":"Gaststätte Vereinshaus"},{"lon":7.5465533,"lat":51.4857893,"name":"Gaststätte Zur Taube"},{"lon":7.4639689,"lat":51.5105998,"name":"Gauklerbrunnen"},{"lon":7.4692154,"lat":51.4724227,"name":"Gaur"},{"lon":7.4689214,"lat":51.4705684,"name":"Gehege"},{"lon":7.3894417,"lat":51.5678342,"name":"Gelände der Kindertagesstätte Erdbeerfeld"},{"lon":7.3883479,"lat":51.5628448,"name":"Geldautomat"},{"lon":7.5876306,"lat":51.5279061,"name":"Gemeindebüro und ev. öffentliche Bücherei"},{"lon":7.5191625,"lat":51.5072125,"name":"Gemeindehaus Arche"},{"lon":7.5119829,"lat":51.4775118,"name":"Gemeindehaus Benninghofen"},{"lon":7.5915519,"lat":51.4858965,"name":"Gemeindehaus Sölderholz"},{"lon":7.5615464,"lat":51.482422,"name":"Gemeindezentrum Aplerbercker Mark"},{"lon":7.4513455,"lat":51.4766334,"name":"Gemeindezentrum Brünninghausen"},{"lon":7.3641567,"lat":51.4875857,"name":"Gemeindezentrum Kley"},{"lon":7.4095124,"lat":51.5029809,"name":"Gemeindezentrum Oberdorstfeld"},{"lon":7.4158121,"lat":51.502894,"name":"Gemeinschaftliche Zahnarztpraxsis Uwe und Bettina Bräunle"},{"lon":7.3820964,"lat":51.5093401,"name":"Gemeinschaftspraxis Dr. Özverim"},{"lon":7.4760553,"lat":51.5048369,"name":"Gemeinschaftspraxis für Kardiologie"},{"lon":7.4127893,"lat":51.5036202,"name":"Gemeinschaftspraxis Lang/Sobbe"},{"lon":7.3167352,"lat":51.5200074,"name":"Gem. Hauptschule Bövinghausen"},{"lon":7.4686182,"lat":51.505498,"name":"Georg-Apotheke"},{"lon":7.4650469,"lat":51.4715777,"name":"Georg-Schule"},{"lon":7.5615582,"lat":51.4935287,"name":"Georgskirche"},{"lon":7.4529236,"lat":51.545424,"name":"Gerätehaus Löschzug 25 Eving/Brechten"},{"lon":7.3251489,"lat":51.5192391,"name":"Gerd Schwebe"},{"lon":7.4774425,"lat":51.5164076,"name":"Gerichtsplatz"},{"lon":7.3623991,"lat":51.4977342,"name":"Germania"},{"lon":7.4578961,"lat":51.5281371,"name":"Gertrud-Bäumer-Realschule"},{"lon":7.4562137,"lat":51.4804944,"name":"Gesamtschule Brünninghausen"},{"lon":7.451822,"lat":51.4734457,"name":"Gesamtschule Brünninghausen, Helene-Lange-Gymnasium"},{"lon":7.5040156,"lat":51.4996798,"name":"Gesamtschule Gartenstadt"},{"lon":7.5452833,"lat":51.5505924,"name":"Gesamtschule Scharnhorst"},{"lon":7.4529455,"lat":51.5241513,"name":"Geschäftsstelle Schützenstraße"},{"lon":7.5822188,"lat":51.5283487,"name":"geschlossen"},{"lon":7.5542016,"lat":51.5294117,"name":"Geschwister-Scholl-Gesamtschule"},{"lon":7.4608971,"lat":51.5123409,"name":"Gesundheitsamt"},{"lon":7.4636043,"lat":51.5234157,"name":"Giang"},{"lon":7.411047,"lat":51.5354867,"name":"Gilden Grundschule"},{"lon":7.4587188,"lat":51.4997134,"name":"Gildenhof"},{"lon":7.3790554,"lat":51.5706965,"name":"Gildenstube"},{"lon":7.4682985,"lat":51.4708949,"name":"Giraffen"},{"lon":7.6029242,"lat":51.5301637,"name":"Giraffenmuseum"},{"lon":7.554846,"lat":51.4903578,"name":"Giresun Kebap"},{"lon":7.55484,"lat":51.4903535,"name":"Giresun Kebap Haus"},{"lon":7.472117,"lat":51.4773538,"name":"Gisbert-von-Romberg-Berufskolleg"},{"lon":7.4281085,"lat":51.5462575,"name":"Glas- und Papiercontainer"},{"lon":7.3870131,"lat":51.5629337,"name":"Glockenturm"},{"lon":7.5430844,"lat":51.4738693,"name":"Glückauf-Kampfbahn"},{"lon":7.5177475,"lat":51.5662741,"name":"Gneisenau-Park"},{"lon":7.3888982,"lat":51.4910614,"name":"Go"},{"lon":7.5022688,"lat":51.5157537,"name":"Gobbrecht"},{"lon":7.4950923,"lat":51.4648029,"name":"Godekin-Apotheke"},{"lon":7.4330602,"lat":51.4759455,"name":"Golden Wok"},{"lon":7.5228559,"lat":51.5143185,"name":"GolfRange Dortmund"},{"lon":7.4710132,"lat":51.4745029,"name":"Goliathreiher"},{"lon":7.5407257,"lat":51.5265129,"name":"Gollans City Grill"},{"lon":7.4359259,"lat":51.4859322,"name":"Gong Bao"},{"lon":7.4501819,"lat":51.5464991,"name":"GO-Tankstelle"},{"lon":7.4727197,"lat":51.5292039,"name":"Gourmet-Tempel"},{"lon":7.5033314,"lat":51.4814203,"name":"Goystadion"},{"lon":7.4740712,"lat":51.5147157,"name":"Grace Royal"},{"lon":7.5035456,"lat":51.5114058,"name":"Grafenburg"},{"lon":7.4593533,"lat":51.556756,"name":"Graf Konrad Grundschule"},{"lon":7.4816096,"lat":51.4217427,"name":"Graf Wittekind Alter Schacht"},{"lon":7.4791499,"lat":51.4207837,"name":"Graf Wittekind Stollen"},{"lon":7.4800729,"lat":51.420623,"name":"Graf Wittekind Stollen Nr. 1"},{"lon":7.4814335,"lat":51.4216434,"name":"Graf Wittekind Stollen Nr. 4"},{"lon":7.4617416,"lat":51.5346127,"name":"Grammophon"},{"lon":7.4428891,"lat":51.5044293,"name":"Greenwheels Station"},{"lon":7.5471905,"lat":51.4670325,"name":"Grenzstein Schwerte - Berghofen"},{"lon":7.5356367,"lat":51.4782617,"name":"Griechisches Restaurant Athen"},{"lon":7.5074495,"lat":51.5160517,"name":"Grill"},{"lon":7.4665643,"lat":51.5038709,"name":"grill69"},{"lon":7.5588926,"lat":51.4942179,"name":"Grill Haus"},{"lon":7.3595835,"lat":51.5272939,"name":"Grillhaus Andaluz"},{"lon":7.5666875,"lat":51.5153738,"name":"Grillhaus Zum Griechen"},{"lon":7.5881158,"lat":51.4956781,"name":"Grill-House"},{"lon":7.4976739,"lat":51.4847323,"name":"Grill-Paradies"},{"lon":7.5514042,"lat":51.526434,"name":"Grill & Pizzeria"},{"lon":7.3700221,"lat":51.5230997,"name":"Grill & Pizzeria Marcello"},{"lon":7.5518346,"lat":51.4931335,"name":"Grillrestaurant Platia"},{"lon":7.462961,"lat":51.5049038,"name":"Grill & Snack"},{"lon":7.5957526,"lat":51.5588924,"name":"Grill Station Husen"},{"lon":7.6107108,"lat":51.5318016,"name":"Grill Store Wickede"},{"lon":7.4721414,"lat":51.5066733,"name":"Grillstube Schie"},{"lon":7.5583901,"lat":51.4954152,"name":"Große Kirche"},{"lon":7.4767218,"lat":51.5444427,"name":"Grünanlage \"An den Teichen\""},{"lon":7.3697215,"lat":51.5187511,"name":"Grünanlage \"Bärenbruch\""},{"lon":7.3494371,"lat":51.5098688,"name":"Grünanlage Haus Dellwig"},{"lon":7.4715634,"lat":51.5129918,"name":"Grünanlage \"Ostwall\""},{"lon":7.3984877,"lat":51.4912247,"name":"Grünanlage Technologiepark"},{"lon":7.3725833,"lat":51.4868368,"name":"Grundschule am Dorney"},{"lon":7.5897908,"lat":51.5276153,"name":"Grundschule Hellwegschule"},{"lon":7.5070856,"lat":51.5534183,"name":"Grundschule Kirchderne"},{"lon":7.4718627,"lat":51.5213696,"name":"Grundschule Kleine Kielstraße"},{"lon":7.5315557,"lat":51.5447569,"name":"Grundschule Siegfried-Drupp"},{"lon":7.4660295,"lat":51.5260754,"name":"Grüner Salon"},{"lon":7.4727184,"lat":51.4719232,"name":"Guanakas"},{"lon":7.4065535,"lat":51.5338928,"name":"Gustav-Heinemann-Gesamtschule"},{"lon":7.4883885,"lat":51.4766189,"name":"Gusto"},{"lon":7.4229431,"lat":51.5139727,"name":"Gutenberg-Grundschule"},{"lon":7.4595835,"lat":51.5124051,"name":"Guten Tag Apotheke"},{"lon":7.4153404,"lat":51.5626488,"name":"Gut Königsmühle"},{"lon":7.4141653,"lat":51.5625743,"name":"Gut Königsmühle - Pädagogisch Soziales Zentrum Dortmund e.V."},{"lon":7.5644753,"lat":51.4913034,"name":"Gymnasium an der Schweizer Allee"},{"lon":7.4725239,"lat":51.5112587,"name":"Gymnastikhalle"},{"lon":7.4529699,"lat":51.5236965,"name":"Hafen Apotheke"},{"lon":7.4523988,"lat":51.524062,"name":"Hafen DöPi"},{"lon":7.4407436,"lat":51.5278762,"name":"Hafen Kombüse"},{"lon":7.4483948,"lat":51.5214174,"name":"Hafenschänke Subrosa"},{"lon":7.3931331,"lat":51.5607646,"name":"Hallenbad"},{"lon":7.5606751,"lat":51.4926975,"name":"Hallenbad Aplerbeck"},{"lon":7.4350849,"lat":51.4720182,"name":"Hallenbad Hombruch"},{"lon":7.3291942,"lat":51.504435,"name":"Hallenbad Lütgendortmund"},{"lon":7.5442246,"lat":51.551803,"name":"Hallenbad Scharnhorst"},{"lon":7.4886462,"lat":51.4757427,"name":"Hallenbad: SSC Hörde 54 / 58 e. V."},{"lon":7.5878361,"lat":51.4946902,"name":"Hallo Döner"},{"lon":7.3807132,"lat":51.5720761,"name":"Hals-Nasen-Ohren-Arzt Dr. Falk Jahnke"},{"lon":7.4603114,"lat":51.5048137,"name":"Halteplatz Kurve"},{"lon":7.4623474,"lat":51.5151619,"name":"HaltePunkt Kampstraße"},{"lon":7.3663014,"lat":51.514039,"name":"Hangeney Grundschule"},{"lon":7.3940457,"lat":51.5335571,"name":"Hansa Grundschule"},{"lon":7.4637754,"lat":51.5124504,"name":"Hansaplatz"},{"lon":7.5019688,"lat":51.4868177,"name":"Hansa Theater"},{"lon":7.4859598,"lat":51.4653666,"name":"Hansa-Treff"},{"lon":7.3654385,"lat":51.5637595,"name":"Hans Block"},{"lon":7.377087,"lat":51.5657207,"name":"Hansemann Park"},{"lon":7.3441258,"lat":51.496785,"name":"Hansi's Grillstube"},{"lon":7.4588296,"lat":51.5139135,"name":"Happy Donazz"},{"lon":7.4706846,"lat":51.5147797,"name":"Happy Happy Ding Dong"},{"lon":7.4378026,"lat":51.4754118,"name":"Harkort-Apotheke"},{"lon":7.4406402,"lat":51.4768312,"name":"Harkort Grundschule"},{"lon":7.4530703,"lat":51.5148721,"name":"Hartware MedienKunstVerein (HMKV)"},{"lon":7.3731704,"lat":51.5684795,"name":"Hasans Holzkohlengrill"},{"lon":7.5225562,"lat":51.4919856,"name":"Hasy Wash"},{"lon":7.4560834,"lat":51.5194137,"name":"Hauptpost Dortmund"},{"lon":7.467365,"lat":51.5546873,"name":"Hauptschule am Externberg"},{"lon":7.3718876,"lat":51.4871539,"name":"Hauptschule Dortmund-Kley"},{"lon":7.4461339,"lat":51.5201882,"name":"Hauptschule In Der Landwehr"},{"lon":7.531791,"lat":51.5532499,"name":"Hauptschule Scharnhorst"},{"lon":7.5307153,"lat":51.5538459,"name":"Hauptschule Scharnhorst +Albert-Einstein Realschule"},{"lon":7.5436589,"lat":51.5576918,"name":"Hausarztpraxis Lars Rettstadt"},{"lon":7.5470727,"lat":51.5238309,"name":"Haus Beckhoff"},{"lon":7.3739127,"lat":51.5254812,"name":"Haus Böllhoff"},{"lon":7.4409416,"lat":51.5115476,"name":"Haus Frommberg"},{"lon":7.5321573,"lat":51.4781624,"name":"Haus Gockel"},{"lon":7.5239627,"lat":51.5210195,"name":"Haus Grube"},{"lon":7.5006142,"lat":51.4870707,"name":"Haus Kilp"},{"lon":7.3351163,"lat":51.5076212,"name":"Haus Kunterbunt"},{"lon":7.4546173,"lat":51.5241758,"name":"Haus Möller"},{"lon":7.3223311,"lat":51.5116745,"name":"Haus Niederhoff"},{"lon":7.4383104,"lat":51.4832478,"name":"Haus Pähler"},{"lon":7.5048776,"lat":51.4488623,"name":"Haus Prein"},{"lon":7.4237052,"lat":51.512471,"name":"Haus Schmidt"},{"lon":7.4222848,"lat":51.5126985,"name":"Haus Schulte-Witten"},{"lon":7.3709478,"lat":51.5221949,"name":"Haus Schumacher"},{"lon":7.6049004,"lat":51.5308552,"name":"Haus Stiepelmann"},{"lon":7.4794917,"lat":51.5504861,"name":"Haus Töpfer"},{"lon":7.4971727,"lat":51.5111159,"name":"Haus Von-der-Tann-Straße"},{"lon":7.5524724,"lat":51.4707483,"name":"Haus Waldesruh"},{"lon":7.5654494,"lat":51.5760344,"name":"Haus Wenge"},{"lon":7.3212801,"lat":51.5144349,"name":"Haus Windau"},{"lon":7.4910318,"lat":51.4872355,"name":"Heaven's Bistro"},{"lon":7.5221645,"lat":51.4455629,"name":"Heide-Apotheke"},{"lon":7.3774901,"lat":51.5702107,"name":"Heidis Bistro"},{"lon":7.3720299,"lat":51.5217439,"name":"Heike Meilus"},{"lon":7.4847524,"lat":51.5262306,"name":"Heilige Dreifaltigkeits Kirche"},{"lon":7.442938,"lat":51.5046435,"name":"Heilig Geist"},{"lon":7.4437428,"lat":51.5046956,"name":"Heilig-Geist-Kirche"},{"lon":7.3862548,"lat":51.5288985,"name":"Heilig Kreuz"},{"lon":7.4545722,"lat":51.5031728,"name":"Heilig-Kreuz-Kirche"},{"lon":7.5470795,"lat":51.523809,"name":"Heimatmuseum"},{"lon":7.3495941,"lat":51.5094849,"name":"Heimatmuseum Lütgendortmund"},{"lon":7.3843949,"lat":51.5746484,"name":"Heimatverein Mengede"},{"lon":7.3356298,"lat":51.5039184,"name":"Heinrich-Böll-Gesamtschule"},{"lon":7.3903767,"lat":51.5588554,"name":"Heinrich-Heine-Gymnasium"},{"lon":7.4953765,"lat":51.5532525,"name":"Heisenberg Gymnasium"},{"lon":7.3704951,"lat":51.4938094,"name":"Heisse Theke"},{"lon":7.4506394,"lat":51.4748245,"name":"Helene-Lange-Gymnasium"},{"lon":7.4428066,"lat":51.4902896,"name":"Helenenberg"},{"lon":7.5026651,"lat":51.5042176,"name":"Heliandkirche"},{"lon":7.4531128,"lat":51.5232234,"name":"Hellas Grill"},{"lon":7.5487252,"lat":51.5237618,"name":"Hellweg Apotheke"},{"lon":7.3595643,"lat":51.4979397,"name":"Hellweg Klause"},{"lon":7.4377522,"lat":51.4690046,"name":"Hellweg-Schänke"},{"lon":7.4596499,"lat":51.5266701,"name":"Helmholtz-Gymnasium"},{"lon":7.4561655,"lat":51.4938648,"name":"Helmut-Körnig-Halle"},{"lon":7.4035222,"lat":51.4971805,"name":"HEM"},{"lon":7.4723161,"lat":51.5143045,"name":"Hemmer"},{"lon":7.5391851,"lat":51.4909556,"name":"Hemmis Fahrschule"},{"lon":7.3851214,"lat":51.5660332,"name":"Herkulesstraße"},{"lon":7.5010779,"lat":51.5240756,"name":"Hermes"},{"lon":7.5188951,"lat":51.5110257,"name":"Hermes Paketshop"},{"lon":7.4661144,"lat":51.5230108,"name":"Heroldschänke"},{"lon":7.4464185,"lat":51.5300303,"name":"Herr Walter"},{"lon":7.3255289,"lat":51.5186673,"name":"Herz-Jesu-Kirche"},{"lon":7.4821458,"lat":51.5133082,"name":"Hexenkessel"},{"lon":7.4114347,"lat":51.5003395,"name":"HiccUp"},{"lon":7.4605904,"lat":51.5256099,"name":"Hindenburg Apotheke"},{"lon":7.5817782,"lat":51.5278854,"name":"Hirsch Apotheke"},{"lon":7.4723267,"lat":51.5141449,"name":"Hirsch-Apotheke"},{"lon":7.4680543,"lat":51.4719986,"name":"Hirsche"},{"lon":7.4650969,"lat":51.5171302,"name":"Hirsch Q"},{"lon":7.4529711,"lat":51.5056455,"name":"Hitzefrei"},{"lon":7.5229422,"lat":51.4587397,"name":"Höchstener Grundschule"},{"lon":7.48215,"lat":51.5297624,"name":"Hoesch Museum"},{"lon":7.4927325,"lat":51.5267467,"name":"Hoeschpark"},{"lon":7.4786105,"lat":51.5250933,"name":"Hoeschplatz"},{"lon":7.4785333,"lat":51.525182,"name":"Hoesplatz"},{"lon":7.4224538,"lat":51.5171772,"name":"Höfkerstraße Anwohnerspielplatz"},{"lon":7.5824609,"lat":51.5282164,"name":"Hof-Schulte-Platz"},{"lon":7.5630827,"lat":51.5363908,"name":"Hohenbuschei-Allee/Heinrich-Czerkus-Allee, 44147 Dortmund"},{"lon":7.4853543,"lat":51.4208883,"name":"Hohensyburg"},{"lon":7.4284932,"lat":51.5465602,"name":"Hohoffs 800° \"The Farmhouse\""},{"lon":7.5105014,"lat":51.5090309,"name":"Hohwart-Grundschule"},{"lon":7.3673119,"lat":51.4878204,"name":"Holger Klein"},{"lon":7.3293684,"lat":51.4988597,"name":"Holte Grundschule"},{"lon":7.3139369,"lat":51.504526,"name":"Holte-Kreta Gyros Grill"},{"lon":7.4757807,"lat":51.4973912,"name":"Honorary Consulate of the Czech Republic"},{"lon":7.5009316,"lat":51.4885759,"name":"Hörder Brückenstraße"},{"lon":7.497029,"lat":51.5108813,"name":"Hospiz am Ostpark"},{"lon":7.3360899,"lat":51.5199446,"name":"Hospiz St. Elisabeth"},{"lon":7.5330694,"lat":51.5125994,"name":"hotel ambiente"},{"lon":7.4644403,"lat":51.516821,"name":"Hotel Carlton"},{"lon":7.5167898,"lat":51.5187668,"name":"Hotel Frieling"},{"lon":7.4541151,"lat":51.5090924,"name":"Hotel Fürst garden"},{"lon":7.385935,"lat":51.5728213,"name":"Hotel Handelshof"},{"lon":7.3826775,"lat":51.508389,"name":"Hotel In der Meile"},{"lon":7.4272317,"lat":51.4765391,"name":"Hotel Lennhof"},{"lon":7.4730963,"lat":51.5124876,"name":"Hotel Neuhaus"},{"lon":7.5535075,"lat":51.4917783,"name":"Hotel Postkutsche"},{"lon":7.5206245,"lat":51.4579615,"name":"Hotel-Restaurant Bel-Veder"},{"lon":7.5072861,"lat":51.5032303,"name":"Hotel & Restaurant Gartenstadt"},{"lon":7.5545562,"lat":51.496502,"name":"Hotel-Restaurant Kroatia"},{"lon":7.5163035,"lat":51.4543568,"name":"Hotel Restaurant Überacker"},{"lon":7.4878317,"lat":51.4239678,"name":"Hotel Sunshine"},{"lon":7.5163087,"lat":51.4542951,"name":"Hotel Überacker"},{"lon":7.4551878,"lat":51.513512,"name":"Hotel Unique Novum"},{"lon":7.4585405,"lat":51.5124655,"name":"Hövels Hausbrauerei"},{"lon":7.4575889,"lat":51.5064026,"name":"HUADE Chinesische Schule Dortmund e. V."},{"lon":7.4522502,"lat":51.5026011,"name":"Hubertus-Grill"},{"lon":7.4148218,"lat":51.5345909,"name":"Huckarde Bushof"},{"lon":7.5238659,"lat":51.5125571,"name":"Hufeisen"},{"lon":7.4698666,"lat":51.4976437,"name":"Hundeauslauffläche Florianstr./Westfalenpark"},{"lon":7.4660939,"lat":51.5104494,"name":"Hunde-Auslauf-Fläche Stadtgarten"},{"lon":7.3937243,"lat":51.5433411,"name":"Hundefreunde Dortmund e.V."},{"lon":7.4248738,"lat":51.5923592,"name":"Hundeplatz"},{"lon":7.3662436,"lat":51.4813243,"name":"Hundesportverein M.V. Oespel-Kley e.V."},{"lon":7.5221266,"lat":51.5092435,"name":"Hundewiese"},{"lon":7.597448,"lat":51.5602874,"name":"Husener Döner Grill"},{"lon":7.5098693,"lat":51.4807394,"name":"Hüttenhospital"},{"lon":7.371704,"lat":51.5215762,"name":"Hyliam Grill"},{"lon":7.4715761,"lat":51.5148747,"name":"HypoVereinsbank"},{"lon":7.4724343,"lat":51.5270093,"name":"HZD Park"},{"lon":7.3819562,"lat":51.4941184,"name":"Ibis"},{"lon":7.3247879,"lat":51.4970062,"name":"Ibis Budget"},{"lon":7.4768141,"lat":51.5039925,"name":"Ibis Dortmund City"},{"lon":7.459068,"lat":51.5136968,"name":"Ichiban"},{"lon":7.3694375,"lat":51.4915161,"name":"IKEA"},{"lon":7.5015605,"lat":51.481992,"name":"Il Gusto"},{"lon":7.3806629,"lat":51.5592046,"name":"Imbiss El Greco"},{"lon":7.3590872,"lat":51.4977423,"name":"Imbiss Futterluke"},{"lon":7.4585765,"lat":51.5030554,"name":"Imbiss Hohe Straße"},{"lon":7.5952493,"lat":51.5319404,"name":"Immanuel-Kant-Gymnasium"},{"lon":7.3795654,"lat":51.5115614,"name":"Immanuel-Kirche Marten"},{"lon":7.4590284,"lat":51.5137357,"name":"Immergrün"},{"lon":7.512638,"lat":51.5243761,"name":"IMO Autopflege"},{"lon":7.4199213,"lat":51.5033721,"name":"imo carwash"},{"lon":7.450047,"lat":51.5181618,"name":"IMO Wash"},{"lon":7.4594308,"lat":51.525324,"name":"Im Scheffelchen"},{"lon":7.4693307,"lat":51.47183,"name":"Indien-Gehege"},{"lon":7.3563639,"lat":51.4928001,"name":"Industriekultur Zeche Zollern"},{"lon":7.4741399,"lat":51.5135452,"name":"Institut für Berufliche Bildung"},{"lon":7.4062896,"lat":51.4890802,"name":"International School of Management"},{"lon":7.3339955,"lat":51.4996946,"name":"Internet Cafe"},{"lon":7.3762431,"lat":51.509472,"name":"Interpool"},{"lon":7.4593624,"lat":51.5151355,"name":"iRoom"},{"lon":7.4694923,"lat":51.5262076,"name":"Islamisches Kulturzentrum \"Bedr\" e.V. Dortmund"},{"lon":7.5846815,"lat":51.5282602,"name":"Istanbul Kebab"},{"lon":7.3253743,"lat":51.5024851,"name":"Jade"},{"lon":7.5545518,"lat":51.5122658,"name":"Jadranstuben"},{"lon":7.5009741,"lat":51.4618363,"name":"Jägerheim"},{"lon":7.516388,"lat":51.5214693,"name":"Jakobus-Kindergarten"},{"lon":7.516438,"lat":51.5211281,"name":"Jakobuskirche Wambel"},{"lon":7.4650315,"lat":51.5277062,"name":"Jankas"},{"lon":7.4708187,"lat":51.5258506,"name":"Janni im alten Schloß"},{"lon":7.4637569,"lat":51.5156554,"name":"Jazzclub Domicil"},{"lon":7.38309,"lat":51.5712092,"name":"Jeanette-Wolff Schule am Mengeder Markt"},{"lon":7.3243773,"lat":51.5074828,"name":"Jet"},{"lon":7.5171074,"lat":51.4853339,"name":"JET-Tankstelle"},{"lon":7.46276,"lat":51.5241461,"name":"Jimmy Jimsen"},{"lon":7.585399,"lat":51.4911527,"name":"Johannes-Falk-Kinderheim"},{"lon":7.6093578,"lat":51.5323716,"name":"Johannes-Kirche"},{"lon":7.4446858,"lat":51.5018563,"name":"Johannes-Wulff-Schule"},{"lon":7.4898665,"lat":51.466728,"name":"Johann-Gutenberg-Realschule"},{"lon":7.446808,"lat":51.5519903,"name":"Johanniter-Kindertageseinrichtung Lindenhorst"},{"lon":7.4656233,"lat":51.4838624,"name":"Johanniter Klinik am Rombergpark"},{"lon":7.4655055,"lat":51.4838816,"name":"Johanniter-Klinik am Rombergpark"},{"lon":7.4883239,"lat":51.4684122,"name":"Jörn Aßhoff"},{"lon":7.6195018,"lat":51.5343904,"name":"Josef-Grundschule"},{"lon":7.4732246,"lat":51.5132862,"name":"Josefinenstift"},{"lon":7.5038893,"lat":51.4858108,"name":"Josefs-Apotheke"},{"lon":7.475952,"lat":51.5114877,"name":"Jüdische Gemeinde Groß-Dortmund"},{"lon":7.3780598,"lat":51.5875139,"name":"Jüdischer Friedhof"},{"lon":7.3353648,"lat":51.5080612,"name":"Jüdischer Friedhof Lütgendortmund"},{"lon":7.3896903,"lat":51.5299453,"name":"Jugendfreizeitstätte / Abenteuerspielplatz Rahm"},{"lon":7.5632034,"lat":51.4908781,"name":"Jugendfreizeitstätte Aplerbeck"},{"lon":7.6103776,"lat":51.5329715,"name":"Jugendfreizeitstätte Wickede"},{"lon":7.4683526,"lat":51.5530174,"name":"Jugendfreizeitzentrum Eving"},{"lon":7.4624276,"lat":51.5123999,"name":"Jugendgästehaus Adolph Kolping"},{"lon":7.378346,"lat":51.548105,"name":"Jugendheim \"Kess\""},{"lon":7.4600718,"lat":51.5118547,"name":"Junge Oper"},{"lon":7.381491,"lat":51.5280679,"name":"Jungferntal Grundschule"},{"lon":7.4725939,"lat":51.5329106,"name":"JunkYard"},{"lon":7.4772552,"lat":51.5149119,"name":"JVA Dortmund"},{"lon":7.5012912,"lat":51.4849312,"name":"Kaffee Klatsch"},{"lon":7.4475229,"lat":51.5260863,"name":"Kaffeepott Frühstücks-Cafe"},{"lon":7.4689457,"lat":51.5058062,"name":"Kaffeerösterei Neues Schwarz"},{"lon":7.5000396,"lat":51.4889456,"name":"Kai Kohlhaas"},{"lon":7.4824232,"lat":51.5129737,"name":"Kaiserbrunnen"},{"lon":7.4826081,"lat":51.4199016,"name":"Kaiser-Wilhelm-Denkmal"},{"lon":7.4700198,"lat":51.474126,"name":"Kamele"},{"lon":7.3705909,"lat":51.4943825,"name":"Kamps"},{"lon":7.3989903,"lat":51.5221831,"name":"Kapelle Wischlingen"},{"lon":7.4531113,"lat":51.508733,"name":"KARAs"},{"lon":7.3958069,"lat":51.5283435,"name":"Karl-Exius-Haus"},{"lon":7.4964207,"lat":51.4891891,"name":"Karl-Müchler-Schule"},{"lon":7.4714128,"lat":51.5176296,"name":"Karl-Schiller-Berufskolleg"},{"lon":7.4636998,"lat":51.5121855,"name":"Karussell"},{"lon":7.440942,"lat":51.4815239,"name":"Katerina's"},{"lon":7.371403,"lat":51.522353,"name":"Katharinen Apotheke"},{"lon":7.3243153,"lat":51.5220043,"name":"Katharinenkirche"},{"lon":7.4595611,"lat":51.5159987,"name":"Katharinentor"},{"lon":7.4725787,"lat":51.510134,"name":"Käthe-Kollwitz-Gymnasium"},{"lon":7.3872946,"lat":51.5291906,"name":"Kath. Hl. Kreuz-Kindergarten"},{"lon":7.5990623,"lat":51.5594013,"name":"Kath. Kindergarten St. Petrus Canisius"},{"lon":7.6070924,"lat":51.5301929,"name":"Kath. Kindergarten Vom Göttlichen Wort"},{"lon":7.5206008,"lat":51.5701101,"name":"Kath. Kindertageseinrichtung St. Aloysius"},{"lon":7.488466,"lat":51.5129029,"name":"Kath. Kindertagesstätte St. Franziskus"},{"lon":7.4582783,"lat":51.4766613,"name":"Kath. Kirche Heilige Familie"},{"lon":7.487039,"lat":51.5020341,"name":"Katholisch-Apostolische Gemeinde"},{"lon":7.5908992,"lat":51.5556104,"name":"katholische Hauptschule Husen, katholische Roncalli-Grundschule"},{"lon":7.4234486,"lat":51.4882929,"name":"Katholische Hochschulgemeinde"},{"lon":7.4942005,"lat":51.4835028,"name":"Katholische Kindertagesstätte Herz Jesu"},{"lon":7.5208405,"lat":51.5696819,"name":"Katholische Kirchengemeinde St. Aloysius"},{"lon":7.5638541,"lat":51.4979248,"name":"Katholischer Friedhof Dortmund-Aplerbeck"},{"lon":7.4592128,"lat":51.5508286,"name":"Katholischer Kindergarten"},{"lon":7.3324989,"lat":51.500761,"name":"Katholischer Kindergarten St. Magdalena"},{"lon":7.5569923,"lat":51.4920935,"name":"Katholisches Pfarramt St. Ewaldi"},{"lon":7.3823395,"lat":51.5739141,"name":"Katholische St. Remigius-Kirche Mengede"},{"lon":7.4614333,"lat":51.5132681,"name":"Kaufhof Parkhaus"},{"lon":7.3802775,"lat":51.5697038,"name":"Kaufland Pardeck"},{"lon":7.3795842,"lat":51.5696154,"name":"Kaufland Parkaus"},{"lon":7.3802772,"lat":51.5697028,"name":"Kaufland Parkhaus"},{"lon":7.5418873,"lat":51.5556054,"name":"Kautsky Grundschule"},{"lon":7.4509742,"lat":51.5055261,"name":"Kayser Grill"},{"lon":7.4644948,"lat":51.5276304,"name":"KCR"},{"lon":7.3811607,"lat":51.5478825,"name":"Kebab"},{"lon":7.5229291,"lat":51.4454458,"name":"Kebab Time"},{"lon":7.4573349,"lat":51.5200662,"name":"Kebaphaus"},{"lon":7.3245144,"lat":51.5066545,"name":"Kebaphaus Burak"},{"lon":7.4760793,"lat":51.5051115,"name":"Kegel-Center"},{"lon":7.4571469,"lat":51.5827248,"name":"Kegelkotten"},{"lon":7.4633278,"lat":51.5203689,"name":"Keli Ani"},{"lon":7.404767,"lat":51.4818937,"name":"Kempe-Husemann"},{"lon":7.4733639,"lat":51.5307784,"name":"Kentucky Fried Chicken"},{"lon":7.5009493,"lat":51.5007658,"name":"Kerschensteiner-Grundschule"},{"lon":7.5680034,"lat":51.513865,"name":"Kerzan's Restaurant"},{"lon":7.4599607,"lat":51.5172586,"name":"KFC"},{"lon":7.4760868,"lat":51.537767,"name":"KFZ-Prüfstelle"},{"lon":7.4390527,"lat":51.4753769,"name":"Kieferzentrum Hombruch"},{"lon":7.4854298,"lat":51.5276846,"name":"Kielhornschule"},{"lon":7.4527847,"lat":51.5000143,"name":"Kieser Training"},{"lon":7.453557,"lat":51.503529,"name":"Kieztörtchen"},{"lon":7.4582256,"lat":51.5566155,"name":"KiGa"},{"lon":7.5327749,"lat":51.5127409,"name":"Kikillus"},{"lon":7.46703,"lat":51.5192207,"name":"Kinderarzt"},{"lon":7.4628773,"lat":51.5745663,"name":"Kinderarzt Dr. Meinolf Stute"},{"lon":7.421172,"lat":51.498135,"name":"Kinderbaustelle"},{"lon":7.4488401,"lat":51.4794369,"name":"Kindererlebniswelt"},{"lon":7.4592735,"lat":51.5567484,"name":"Kindergarten"},{"lon":7.5014705,"lat":51.480017,"name":"Kindergarten Am Bruchheck"},{"lon":7.5195117,"lat":51.5073565,"name":"Kindergarten Arche"},{"lon":7.6135578,"lat":51.5378003,"name":"Kindergarten Elterninitiative Purzelbaum e.V."},{"lon":7.5027698,"lat":51.5047199,"name":"Kindergarten Gänseblümchen"},{"lon":7.6145427,"lat":51.5313277,"name":"Kindergarten Pumuckel"},{"lon":7.4216521,"lat":51.5140278,"name":"Kindergarten Sankt Barbara"},{"lon":7.4080516,"lat":51.5396519,"name":"Kindergarten Sankt Christophorus"},{"lon":7.4661325,"lat":51.5017756,"name":"Kindergartenspielplatz"},{"lon":7.4349035,"lat":51.4740047,"name":"Kindergarten St. Clemens"},{"lon":7.5285388,"lat":51.5029148,"name":"Kindergarten Wirbelwind"},{"lon":7.4483957,"lat":51.5197123,"name":"Kinderladen Pfiffikuss e.V."},{"lon":7.4693655,"lat":51.5103603,"name":"Kindermuseum Adlerturm"},{"lon":7.3845757,"lat":51.573498,"name":"Kindernest Sterntaler e.V."},{"lon":7.4501352,"lat":51.4739964,"name":"Kindertagesstätte"},{"lon":7.5135399,"lat":51.5182705,"name":"Kindertagesstätte Akazienstraße"},{"lon":7.3670205,"lat":51.515595,"name":"Kindertagesstätte Elfenwald"},{"lon":7.3895015,"lat":51.5678495,"name":"Kindertagesstätte Erdbeerfeld"},{"lon":7.4739351,"lat":51.5009641,"name":"Kindertagesstätte Hainallee"},{"lon":7.4133616,"lat":51.4947704,"name":"Kindertagesstätte HOKIDO"},{"lon":7.5355549,"lat":51.4771634,"name":"Kindertagesstätte Igelweg e.V."},{"lon":7.5445931,"lat":51.4835682,"name":"Kindertagesstätte (Kita) Heliosweg"},{"lon":7.5908051,"lat":51.499834,"name":"Kindertagesstätte Nathmerichstraße"},{"lon":7.484229,"lat":51.5566968,"name":"Kinder- und Jugendhaus"},{"lon":7.4858329,"lat":51.4950117,"name":"Kinder- und Jugendtheater"},{"lon":7.404968,"lat":51.4973855,"name":"Kiosk"},{"lon":7.5233908,"lat":51.4579085,"name":"Kirche auf dem Höchsten"},{"lon":7.4582559,"lat":51.4848851,"name":"Kirche Jesus Christus Heilige der letzten Tage"},{"lon":7.4097779,"lat":51.5029681,"name":"Kirchengemeinde"},{"lon":7.3840225,"lat":51.5081104,"name":"Kirchengemeinde Hl. Familie"},{"lon":7.380297,"lat":51.5032275,"name":"Kirchhoff Recycling Center"},{"lon":7.3715927,"lat":51.5221085,"name":"Kirchlinder Eck"},{"lon":7.4573813,"lat":51.5123095,"name":"Kir Royal"},{"lon":7.3396093,"lat":51.501975,"name":"KiTa Westermannstraße"},{"lon":7.3476886,"lat":51.4980031,"name":"Kita Winandweg"},{"lon":7.4627966,"lat":51.5045548,"name":"Kitchen Club"},{"lon":7.3420319,"lat":51.4969865,"name":"Klaus-J. Driller, HNO-Arzt"},{"lon":7.4596693,"lat":51.5147666,"name":"Kleimann"},{"lon":7.469726,"lat":51.4725338,"name":"Kleine Pandas"},{"lon":7.4178159,"lat":51.4939937,"name":"Kleine Pump- und Reparaturstation"},{"lon":7.4716759,"lat":51.5227954,"name":"Kleiner Herold"},{"lon":7.4205528,"lat":51.4539557,"name":"Kleine Strolche"},{"lon":7.4789988,"lat":51.4516055,"name":"Kleinezeche Stadt Dortmund"},{"lon":7.3780754,"lat":51.5663588,"name":"Kleinfußballfeld"},{"lon":7.4414336,"lat":51.462724,"name":"Kleingartenanlage Löttringhausen"},{"lon":7.4034998,"lat":51.5198808,"name":"Klettergerüst"},{"lon":7.4095812,"lat":51.5426693,"name":"Kletterhalle Bergwerk"},{"lon":7.3632347,"lat":51.4865673,"name":"Kleyer Sonnenkinder"},{"lon":7.4564162,"lat":51.5092665,"name":"Klinik fürChirugie"},{"lon":7.4551164,"lat":51.5095898,"name":"Klinik für Kinder- und Jugendmedizin"},{"lon":7.454978,"lat":51.5091739,"name":"Klinikum Park"},{"lon":7.5333298,"lat":51.5197548,"name":"Klinikum Westfalen (ehem. Kanppschaftskrankenhaus)"},{"lon":7.4573302,"lat":51.5078913,"name":"Klinikzentrum Mitte"},{"lon":7.4545609,"lat":51.5343161,"name":"Klinikzentrum Nord"},{"lon":7.494356,"lat":51.4936064,"name":"Kluseneck"},{"lon":7.4633482,"lat":51.5500437,"name":"k. Maras 2"},{"lon":7.4813753,"lat":51.4968839,"name":"Kneippbecken"},{"lon":7.4658939,"lat":51.5238322,"name":"Knobelmaus"},{"lon":7.4230607,"lat":51.5122834,"name":"Knossos"},{"lon":7.5615794,"lat":51.4953445,"name":"Kohlen-Lore"},{"lon":7.4114454,"lat":51.5404604,"name":"Kokerei Hansa"},{"lon":7.4124721,"lat":51.5406661,"name":"Kokerei Hansa Industriedenkmal"},{"lon":7.4146017,"lat":51.5396915,"name":"Kokereiparkplatz"},{"lon":7.3312215,"lat":51.5194937,"name":"Kolonie Landwehr"},{"lon":7.5479935,"lat":51.524413,"name":"Kommende"},{"lon":7.4568774,"lat":51.4525645,"name":"Konditorei Mack"},{"lon":7.6095731,"lat":51.5320926,"name":"Kondomautomat"},{"lon":7.4694699,"lat":51.4744579,"name":"Kondor"},{"lon":7.4569458,"lat":51.4958705,"name":"Kongresszentrum"},{"lon":7.4736997,"lat":51.5181605,"name":"Konrad-Klepping-Berufskolleg"},{"lon":7.5010939,"lat":51.4862877,"name":"Kontrast"},{"lon":7.4549023,"lat":51.5246135,"name":"Konya Grill"},{"lon":7.4665306,"lat":51.5162381,"name":"Konzerthaus Dortmund Brückstr.21"},{"lon":7.4549396,"lat":51.5241808,"name":"Korfu"},{"lon":7.5067469,"lat":51.5159758,"name":"Körne 76"},{"lon":7.50306,"lat":51.5154767,"name":"Körnebach-Apotheke"},{"lon":7.5016303,"lat":51.5169101,"name":"Körner Hof"},{"lon":7.5028838,"lat":51.5158126,"name":"Körner Stübchen"},{"lon":7.406745,"lat":51.5057573,"name":"Kortentalgrill"},{"lon":7.5464378,"lat":51.5238176,"name":"Kosmos-Apotheke"},{"lon":7.3799153,"lat":51.5630998,"name":"Kosmos Grill"},{"lon":7.4206827,"lat":51.4943314,"name":"kostBar"},{"lon":7.5711744,"lat":51.4988167,"name":"Köster Kosmetik"},{"lon":7.4521942,"lat":51.513287,"name":"Kraftstoff"},{"lon":7.4745983,"lat":51.5141508,"name":"Kraftwerk"},{"lon":7.513823,"lat":51.4385768,"name":"Krämer in der Wanne"},{"lon":7.5570375,"lat":51.493046,"name":"Kranich Apotheke"},{"lon":7.453963,"lat":51.5135343,"name":"Kraut & Rüben"},{"lon":7.4387258,"lat":51.4820466,"name":"Kreuz-Apotheke"},{"lon":7.446018,"lat":51.5020453,"name":"Kreuz-Grundschule"},{"lon":7.4539049,"lat":51.5035809,"name":"Kreuzhof"},{"lon":7.531373,"lat":51.476607,"name":"Kreuzkirche"},{"lon":7.4584894,"lat":51.5032535,"name":"Kreuzviertel Wok"},{"lon":7.3713209,"lat":51.5227275,"name":"Kroatia"},{"lon":7.3257095,"lat":51.5202118,"name":"Krönchen"},{"lon":7.4618084,"lat":51.5089944,"name":"Kronen Apotheke"},{"lon":7.4618506,"lat":51.5090144,"name":"Kronen-Apotheke"},{"lon":7.4135152,"lat":51.4550653,"name":"Kruckeler Grundschule"},{"lon":7.4831422,"lat":51.5128845,"name":"Küchencafe Bismarck"},{"lon":7.4685192,"lat":51.5159728,"name":"Kuckelke"},{"lon":7.4683444,"lat":51.5159711,"name":"Kuckelke Apotheke"},{"lon":7.4781557,"lat":51.5134608,"name":"Kuhbar"},{"lon":7.5478748,"lat":51.4798228,"name":"Kuh-Bar"},{"lon":7.5018975,"lat":51.4854879,"name":"KUHBAR Dortmund-Hörde"},{"lon":7.4328169,"lat":51.4759234,"name":"Kuhbar (Eiscafe)"},{"lon":7.5969392,"lat":51.5298009,"name":"Kuhbar Eiscafé"},{"lon":7.4538765,"lat":51.5328507,"name":"Kulturort Depot"},{"lon":7.4156716,"lat":51.5370412,"name":"Kulturzentrum Alte Schmiede"},{"lon":7.382518,"lat":51.5705892,"name":"Kulturzentrum Mengeder Saalbau"},{"lon":7.4517016,"lat":51.5025944,"name":"Kumpel Erich"},{"lon":7.3744882,"lat":51.4957934,"name":"Kundenparkplatz"},{"lon":7.3837489,"lat":51.5702703,"name":"Kundenparkplatz Aldi"},{"lon":7.4000461,"lat":51.5071392,"name":"Kundenparkplatz Autohaus Brand + Goldau"},{"lon":7.3803559,"lat":51.4868987,"name":"Kundenparkplatz EDEKA"},{"lon":7.4075886,"lat":51.4808115,"name":"Kundenparkplatz Fruchtbare Erde"},{"lon":7.3809007,"lat":51.5700425,"name":"Kundenparkplatz Kaufland"},{"lon":7.3841701,"lat":51.5704957,"name":"Kundenparkplatz REWE"},{"lon":7.3800449,"lat":51.5705757,"name":"Kundenparkplatz Sparkasse"},{"lon":7.3155259,"lat":51.519871,"name":"Kunterbunt"},{"lon":7.5135572,"lat":51.5115837,"name":"Kupferkrug"},{"lon":7.4690804,"lat":51.5134526,"name":"Kyoto"},{"lon":7.5019617,"lat":51.4941422,"name":"la cafe"},{"lon":7.4843674,"lat":51.4622475,"name":"La Conchiglia"},{"lon":7.5080664,"lat":51.5053265,"name":"La cuisine Mario Kalweit"},{"lon":7.4307583,"lat":51.490479,"name":"La Gazzetta"},{"lon":7.5068191,"lat":51.4906249,"name":"LaLuna Eiscafé"},{"lon":7.4965375,"lat":51.5130433,"name":"la medya"},{"lon":7.4943671,"lat":51.4779048,"name":"La Menta"},{"lon":7.5439957,"lat":51.5240631,"name":"Lamers und Kohlschein"},{"lon":7.5012367,"lat":51.4918346,"name":"Lan Anh"},{"lon":7.4762956,"lat":51.5139243,"name":"Landgericht"},{"lon":7.4638499,"lat":51.5047191,"name":"Landgrafen-Apotheke"},{"lon":7.4740669,"lat":51.5046194,"name":"Landgrafen Grundschule"},{"lon":7.4883507,"lat":51.4244218,"name":"Landhaus Syburg"},{"lon":7.5539324,"lat":51.5532559,"name":"Landschaftspark Alte Körne"},{"lon":7.4396181,"lat":51.4583534,"name":"Langeloh Grundschule"},{"lon":7.4647019,"lat":51.5276485,"name":"Langer August"},{"lon":7.4557314,"lat":51.4998254,"name":"Langermannschule"},{"lon":7.4787195,"lat":51.4986916,"name":"Langnesespielplatz"},{"lon":7.5595647,"lat":51.5686435,"name":"Lanstroper Ei"},{"lon":7.5637452,"lat":51.5795087,"name":"Lanstroper Holzofen Pizzaria"},{"lon":7.4635256,"lat":51.5150392,"name":"La Paz Bahn 403"},{"lon":7.5096098,"lat":51.5164537,"name":"La Perla"},{"lon":7.3738134,"lat":51.5227777,"name":"La Romana"},{"lon":7.510957,"lat":51.4535809,"name":"L'Arrivee"},{"lon":7.5107535,"lat":51.4538061,"name":"l’Arrivée HOTEL & SPA"},{"lon":7.4909078,"lat":51.496749,"name":"l`Artista - geschlossen!"},{"lon":7.4362762,"lat":51.4863575,"name":"La Scala"},{"lon":7.4679042,"lat":51.513467,"name":"Las Salinas"},{"lon":7.452869,"lat":51.5214413,"name":"Latino Sol"},{"lon":7.4708247,"lat":51.5115048,"name":"La Toskana"},{"lon":7.4621482,"lat":51.5007533,"name":"La Trattoria"},{"lon":7.4716695,"lat":51.5095106,"name":"Laufbahn"},{"lon":7.4801763,"lat":51.5127746,"name":"La Villa am Kaiserbrunnen"},{"lon":7.3889058,"lat":51.5364839,"name":"LebensArt Café"},{"lon":7.4701002,"lat":51.4715466,"name":"Leerstehend zw. Umbau"},{"lon":7.62028,"lat":51.5347581,"name":"Lehrerparklplatz Max-Born-Realschule"},{"lon":7.4501103,"lat":51.4747434,"name":"Lehrerparkplatz"},{"lon":7.3818303,"lat":51.5727705,"name":"Lehrerparkplatz der Regenbogen-Grundschule"},{"lon":7.4417264,"lat":51.5009067,"name":"Leibniz-Gymnasium"},{"lon":7.4420678,"lat":51.5014192,"name":"Leibniz Gymnasium | Dortmund International School"},{"lon":7.3304344,"lat":51.5206916,"name":"Lello II"},{"lon":7.4711097,"lat":51.5300211,"name":"Le Miro"},{"lon":7.4732712,"lat":51.5139808,"name":"Lemongrass"},{"lon":7.4736882,"lat":51.5193444,"name":"Leopold-Hoesch-Berufskolleg"},{"lon":7.4479087,"lat":51.5216997,"name":"Lessing Grundschule"},{"lon":7.510223,"lat":51.514445,"name":"Libori Grundschule"},{"lon":7.5960405,"lat":51.4860415,"name":"Lichtendorf Grundschule Gebäude Sölderholz"},{"lon":7.5955647,"lat":51.4687946,"name":"Lichtendorf-Nord"},{"lon":7.4648425,"lat":51.517264,"name":"Lichtspiel und Kunsttheater Schauburg"},{"lon":7.4145301,"lat":51.5376601,"name":"LIDL Parkplatz"},{"lon":7.4916073,"lat":51.4661021,"name":"Lieberfeld-Grundschule"},{"lon":7.455882,"lat":51.511589,"name":"Liebfrauenkirche"},{"lon":7.4541116,"lat":51.5040115,"name":"Liebig-Grundschule"},{"lon":7.4541087,"lat":51.5028769,"name":"Lila Lecker"},{"lon":7.4521086,"lat":51.5027085,"name":"Lilia-Ursula Zbiegien"},{"lon":7.5010263,"lat":51.4848997,"name":"Lili Marlene"},{"lon":7.4508513,"lat":51.5060279,"name":"Lindemannapotheke"},{"lon":7.3718155,"lat":51.523078,"name":"Lindenapotheke"},{"lon":7.6023717,"lat":51.5304519,"name":"Lindenhof"},{"lon":7.4635417,"lat":51.5150172,"name":"Linie 403 Straßenbahncafé"},{"lon":7.4057639,"lat":51.481752,"name":"Linne-Apotheke"},{"lon":7.3832886,"lat":51.4874692,"name":"Linnertschänke"},{"lon":7.4618652,"lat":51.5134432,"name":"Linus"},{"lon":7.3666707,"lat":51.5519908,"name":"L'Italiano"},{"lon":7.4644729,"lat":51.514612,"name":"Little Italy"},{"lon":7.3744681,"lat":51.49096,"name":"Living Hope International Church"},{"lon":7.4697281,"lat":51.4705764,"name":"Löffelhunde"},{"lon":7.5156784,"lat":51.4696211,"name":"Loh-Grundschule"},{"lon":7.4519468,"lat":51.5033791,"name":"Lokales im Kreuzviertel"},{"lon":7.4651832,"lat":51.5110863,"name":"lokalmanufaktur"},{"lon":7.4625054,"lat":51.5276472,"name":"Lortzing Pizzeria"},{"lon":7.4341179,"lat":51.5343764,"name":"Löschbootschuppen"},{"lon":7.5888159,"lat":51.4993981,"name":"Löschzug 11 Sölde"},{"lon":7.5555849,"lat":51.487125,"name":"Löschzug 12 Aplerbeck"},{"lon":7.5221146,"lat":51.4821038,"name":"Löschzug 13 Berghofen"},{"lon":7.4865394,"lat":51.427643,"name":"Löschzug 14 Syburg"},{"lon":7.4441822,"lat":51.4549594,"name":"Löschzug 15 Kirchhörde/Löttringhausen"},{"lon":7.4397826,"lat":51.4733984,"name":"Löschzug 16 Hombruch"},{"lon":7.4102167,"lat":51.4607366,"name":"Löschzug 17 Persebeck"},{"lon":7.3742361,"lat":51.4877065,"name":"Löschzug 18 Oespel/Kley"},{"lon":7.3329675,"lat":51.4981154,"name":"Löschzug 19 Lütgendortmund"},{"lon":7.3966956,"lat":51.5526792,"name":"Löschzug 20 Nette"},{"lon":7.3669158,"lat":51.5509492,"name":"Löschzug 21 Bodelschwingh"},{"lon":7.3783291,"lat":51.5610945,"name":"Löschzug 22 Mengede"},{"lon":7.3995199,"lat":51.5838161,"name":"Löschzug 23 Groppenbruch"},{"lon":7.5980362,"lat":51.5317149,"name":"Löschzug 24 - Asseln"},{"lon":7.5696795,"lat":51.5754771,"name":"Löschzug 26 - Lanstrop"},{"lon":7.5975979,"lat":51.4717265,"name":"Löschzug 27 Lichtendorf"},{"lon":7.5224457,"lat":51.444678,"name":"Löschzug 28 Holzen"},{"lon":7.4270097,"lat":51.5471848,"name":"Löschzug 29 Deusen"},{"lon":7.4665225,"lat":51.5117381,"name":"L'Osteria"},{"lon":7.347981,"lat":51.4987566,"name":"Lotto Mus"},{"lon":7.4860868,"lat":51.472105,"name":"Lotusblume"},{"lon":7.4330563,"lat":51.475915,"name":"Lotusgarten"},{"lon":7.4699895,"lat":51.4718971,"name":"Löwe"},{"lon":7.4729281,"lat":51.472166,"name":"Luchs-Schlucht"},{"lon":7.4597997,"lat":51.5261388,"name":"Lüchtemeier"},{"lon":7.5068548,"lat":51.4878013,"name":"Lucky Bike"},{"lon":7.5181363,"lat":51.5274777,"name":"Luder Lounge"},{"lon":7.4969266,"lat":51.5143521,"name":"Lüders"},{"lon":7.3723165,"lat":51.5446316,"name":"Luisenkirche Westerfilde"},{"lon":7.3926299,"lat":51.5646925,"name":"Luisenplatz"},{"lon":7.5262701,"lat":51.5037521,"name":"Lukas & Lukas"},{"lon":7.4592717,"lat":51.5052247,"name":"Lups"},{"lon":7.4385184,"lat":51.4754705,"name":"Lüsse"},{"lon":7.464876,"lat":51.5168665,"name":"Lütge Eck"},{"lon":7.4868779,"lat":51.5275463,"name":"Luther Kindergarten"},{"lon":7.4863511,"lat":51.5277086,"name":"Luther-Kirche"},{"lon":7.5878272,"lat":51.5284728,"name":"Luther-Kirche Asseln"},{"lon":7.4278861,"lat":51.4837059,"name":"Lutherkirche Barop"},{"lon":7.4994235,"lat":51.4901135,"name":"Lutherkirche Hörde"},{"lon":7.5442538,"lat":51.5033952,"name":"LWL-Förderschulen"},{"lon":7.3339823,"lat":51.5184387,"name":"LWL-Industriemuseum Zeche Zollern"},{"lon":7.3356787,"lat":51.5177912,"name":"LWL-Museum Zeche Zollern 2/4"},{"lon":7.4565763,"lat":51.4575115,"name":"Magarethen Apotheke"},{"lon":7.4714506,"lat":51.4719224,"name":"Mähnenwolf"},{"lon":7.4635607,"lat":51.5234601,"name":"Malibu Café"},{"lon":7.4662019,"lat":51.5088553,"name":"Mallinckrodt-Gymnasium"},{"lon":7.4620234,"lat":51.5130881,"name":"Malteser Hilfsdienst e.V."},{"lon":7.4643113,"lat":51.5074802,"name":"Mama mia"},{"lon":7.4857348,"lat":51.4720036,"name":"Mamma Leone"},{"lon":7.4356071,"lat":51.4753574,"name":"Mamma Mia"},{"lon":7.4961191,"lat":51.513075,"name":"Manhattan Sportsbar"},{"lon":7.3692641,"lat":51.5270471,"name":"man kocht"},{"lon":7.4547884,"lat":51.5513613,"name":"Maras Grill"},{"lon":7.4845082,"lat":51.5567542,"name":"Märchenland"},{"lon":7.465685,"lat":51.5166517,"name":"Mare"},{"lon":7.4662087,"lat":51.5128156,"name":"Maredo"},{"lon":7.4294581,"lat":51.4905746,"name":"Margarethenkapelle"},{"lon":7.370937,"lat":51.5509099,"name":"Mariä Heimsuchung"},{"lon":7.4062817,"lat":51.4783811,"name":"Maria Königin"},{"lon":7.6064903,"lat":51.5312559,"name":"Marien-Apotheke"},{"lon":7.3267928,"lat":51.4993452,"name":"Marienborn Grundschule"},{"lon":7.442104,"lat":51.4785082,"name":"Marienhospital"},{"lon":7.4427841,"lat":51.477839,"name":"Marienkindergarten"},{"lon":7.4856007,"lat":51.5533835,"name":"Marienkirche"},{"lon":7.4921678,"lat":51.4869464,"name":"Marie-Reinders-Realschule"},{"lon":7.3664925,"lat":51.4993695,"name":"Maringer's Bockhalle"},{"lon":7.3242924,"lat":51.5213586,"name":"Marius Nowak"},{"lon":7.4701724,"lat":51.5198153,"name":"Markant"},{"lon":7.5529036,"lat":51.4825464,"name":"Märker-Stuben"},{"lon":7.4869204,"lat":51.4981457,"name":"Märkische Apotheke"},{"lon":7.5555457,"lat":51.490731,"name":"Marktapotheke"},{"lon":7.4148731,"lat":51.5319679,"name":"Markt Apotheke"},{"lon":7.4738522,"lat":51.5547332,"name":"Markt-Apotheke"},{"lon":7.3802192,"lat":51.5094291,"name":"Marktplatz"},{"lon":7.5507164,"lat":51.5237125,"name":"Marktplatz Brackel"},{"lon":7.5507638,"lat":51.523716,"name":"Marktplatz Brackel / Parkplatz"},{"lon":7.4142084,"lat":51.5311479,"name":"Marktplatz Huckarde"},{"lon":7.382384,"lat":51.5709395,"name":"Marktplatz Mengede"},{"lon":7.4590531,"lat":51.5315726,"name":"Markus-Kirche"},{"lon":7.353452,"lat":51.4977488,"name":"Marquese"},{"lon":7.4634994,"lat":51.5236149,"name":"Marrakesch"},{"lon":7.3784872,"lat":51.5102136,"name":"Martener Hof"},{"lon":7.3774357,"lat":51.5088772,"name":"Martener Park"},{"lon":7.3796552,"lat":51.510529,"name":"Martens"},{"lon":7.5425176,"lat":51.5039067,"name":"Martin-Bartels-Schule"},{"lon":7.4408088,"lat":51.5111367,"name":"Martinkirche"},{"lon":7.5570492,"lat":51.4933568,"name":"Martin Lehmann (Orthopädie)"},{"lon":7.4053719,"lat":51.5019469,"name":"Martin-Luther-King-Gesamtschule"},{"lon":7.3147244,"lat":51.506238,"name":"Martin-Luther-King-Haus"},{"lon":7.5492582,"lat":51.5240866,"name":"Masterpiece"},{"lon":7.4675161,"lat":51.5171524,"name":"Mato Cocktailbar"},{"lon":7.6189638,"lat":51.5351802,"name":"Max-Born-Realschule"},{"lon":7.5945102,"lat":51.5319498,"name":"Max-Born-Realschule (derzeit ausgelagert)"},{"lon":7.5951909,"lat":51.5318073,"name":"Max-Born-Realschule | Immanuel-Kant-Gymnasium"},{"lon":7.4661729,"lat":51.5135218,"name":"Maximilian"},{"lon":7.4605204,"lat":51.4901231,"name":"Max-Planck-Gymnasium"},{"lon":7.4798691,"lat":51.5449191,"name":"Max-Wittmann-Schule"},{"lon":7.3664047,"lat":51.4936574,"name":"McDonald's"},{"lon":7.4639824,"lat":51.5230742,"name":"M&C Döner"},{"lon":7.5539524,"lat":51.4885605,"name":"McFit"},{"lon":7.4733666,"lat":51.5348302,"name":"McFIT"},{"lon":7.464661,"lat":51.5726683,"name":"Medar Gesundheitsstudio"},{"lon":7.3823078,"lat":51.487532,"name":"Mediteranos"},{"lon":7.6155679,"lat":51.532571,"name":"Mein Café in der Alten Backstube"},{"lon":7.490593,"lat":51.5132204,"name":"Melanchthonkirche"},{"lon":7.3796752,"lat":51.4943098,"name":"Memorie-z"},{"lon":7.4421417,"lat":51.5399642,"name":"Mendesportanlage"},{"lon":7.3763394,"lat":51.5702142,"name":"Mengede Bahnhof"},{"lon":7.3830486,"lat":51.5705277,"name":"Mengede Markt"},{"lon":7.3986044,"lat":51.574704,"name":"Mengeder Heimatwald"},{"lon":7.385156,"lat":51.5732279,"name":"Mengeder Yogaraum"},{"lon":7.4149019,"lat":51.493164,"name":"Mensa"},{"lon":7.5556014,"lat":51.4917382,"name":"Mercator Bücherschrank"},{"lon":7.467744,"lat":51.5120819,"name":"Mercure Hotel Dortmund Centrum"},{"lon":7.4630052,"lat":51.5154898,"name":"Mercure Hotel Dortmund City"},{"lon":7.4557409,"lat":51.4955377,"name":"Mercure Hotel Dortmund Messe & Kongress"},{"lon":7.5886323,"lat":51.4949011,"name":"MerkurApotheke"},{"lon":7.472295,"lat":51.5307636,"name":"Merkur Casino"},{"lon":7.4569436,"lat":51.4965199,"name":"Messehalle-1"},{"lon":7.4552797,"lat":51.496475,"name":"Messehalle-2/2u"},{"lon":7.4553536,"lat":51.4961307,"name":"Messehalle-2n"},{"lon":7.4539515,"lat":51.4964033,"name":"Messehalle-3a"},{"lon":7.4542283,"lat":51.4955685,"name":"Messehalle-3b"},{"lon":7.4525793,"lat":51.495971,"name":"Messehalle-4"},{"lon":7.4515841,"lat":51.496782,"name":"Messehalle-5"},{"lon":7.4505192,"lat":51.4965404,"name":"Messehalle-6"},{"lon":7.4506239,"lat":51.4957818,"name":"Messehalle-7"},{"lon":7.4491379,"lat":51.4958411,"name":"Messehalle-8"},{"lon":7.3738576,"lat":51.4941443,"name":"Metro"},{"lon":7.4057382,"lat":51.4893411,"name":"metropolradruhr"},{"lon":7.4597127,"lat":51.5169443,"name":"metropolrad Ruhr"},{"lon":7.4500099,"lat":51.5023245,"name":"Metropolradruhr"},{"lon":7.4066739,"lat":51.4933463,"name":"metropolradruhr.de"},{"lon":7.3773274,"lat":51.5629068,"name":"Mevlana Camii"},{"lon":7.5620675,"lat":51.5793827,"name":"Michael Apotheke"},{"lon":7.4923005,"lat":51.4700631,"name":"Middelmann Heinen"},{"lon":7.4552087,"lat":51.5375075,"name":"MinaVita Café Restaurant"},{"lon":7.4873962,"lat":51.4208434,"name":"Miniatur-Golf Hohensyburg Zur Burgruine"},{"lon":7.5589147,"lat":51.5154325,"name":"Mini-Club"},{"lon":7.4039342,"lat":51.5215894,"name":"Minigolf"},{"lon":7.4829446,"lat":51.5541332,"name":"Minister Stein Apotheke"},{"lon":7.4607359,"lat":51.4760181,"name":"Minna-Sattler Seniorenzentrum"},{"lon":7.3731619,"lat":51.5450509,"name":"Minoas Grill"},{"lon":7.4734406,"lat":51.5142353,"name":"Mi Piace"},{"lon":7.4378756,"lat":51.4796686,"name":"Mira-Lobe-Schule"},{"lon":7.4411392,"lat":51.5097096,"name":"Missin' Link"},{"lon":7.4508817,"lat":51.5058623,"name":"Miss Mai"},{"lon":7.4945447,"lat":51.5143343,"name":"Mister Döner"},{"lon":7.3238833,"lat":51.506999,"name":"Mister Pizza"},{"lon":7.5266405,"lat":51.5051811,"name":"Mitarbeiterparkplatz"},{"lon":7.4160274,"lat":51.5115929,"name":"Mitarbeiterparkplatz Caterpillar"},{"lon":7.3753488,"lat":51.5457762,"name":"Mithus Pizzeria"},{"lon":7.3987257,"lat":51.5197522,"name":"Mobil Camp Wischlingen"},{"lon":7.5065015,"lat":51.5160734,"name":"Mohren-Apotheke"},{"lon":7.4507705,"lat":51.5073718,"name":"Möllerbrücke"},{"lon":7.4528454,"lat":51.4997486,"name":"Mongo's"},{"lon":7.3484461,"lat":51.4910758,"name":"Mörikeschule"},{"lon":7.4047466,"lat":51.5270986,"name":"Moschee"},{"lon":7.452916,"lat":51.4968183,"name":"Motorrad Parkplatz"},{"lon":7.5610729,"lat":51.4879186,"name":"Mountainbike Strecke Aplerbeck"},{"lon":7.4961871,"lat":51.5128936,"name":"moveclub-Fitness"},{"lon":7.5789754,"lat":51.566553,"name":"Mowwe „Der Hof“"},{"lon":7.4590481,"lat":51.5136523,"name":"Mr. Chicken"},{"lon":7.4589443,"lat":51.5136358,"name":"Mr. Phung"},{"lon":7.4752269,"lat":51.5076134,"name":"Mr. Wash Auto Service AG"},{"lon":7.4753705,"lat":51.5080339,"name":"Mr. Wash Innenwäsche"},{"lon":7.5065449,"lat":51.4910456,"name":"Mu Kii"},{"lon":7.4650188,"lat":51.521472,"name":"Münster Apotheke"},{"lon":7.4629392,"lat":51.5166792,"name":"Museum für Kunst und Kulturgeschichte"},{"lon":7.4418726,"lat":51.5377447,"name":"Musikpavillon"},{"lon":7.3763231,"lat":51.5629159,"name":"Musikschule Klaus Neuhaus"},{"lon":7.3492142,"lat":51.4988886,"name":"Musiktheater Piano"},{"lon":7.3494117,"lat":51.4990908,"name":"Musiktheater Piano Biergarten"},{"lon":7.4848431,"lat":51.515982,"name":"Musik- und Kulturzentrum MUK"},{"lon":7.6112906,"lat":51.532276,"name":"myDöner"},{"lon":7.3732266,"lat":51.5225037,"name":"Mykonos"},{"lon":7.3238359,"lat":51.5080242,"name":"Mythos Grill"},{"lon":7.388929,"lat":51.5584526,"name":"Nahida Mokhtar-Vieth"},{"lon":7.4065593,"lat":51.5491556,"name":"Nahverkehrsmuseum Mooskamp"},{"lon":7.4700739,"lat":51.5127294,"name":"Namu"},{"lon":7.4732593,"lat":51.4734844,"name":"Nasenbären"},{"lon":7.4721524,"lat":51.4711106,"name":"Nashorn-Anlage"},{"lon":7.5580684,"lat":51.4818939,"name":"Nathebach Apotheke"},{"lon":7.4605258,"lat":51.5149231,"name":"National-Bank"},{"lon":7.4961799,"lat":51.4214104,"name":"Naturbühne Hohensyburg"},{"lon":7.4577092,"lat":51.535894,"name":"Naturkundemuseum"},{"lon":7.3486219,"lat":51.5110591,"name":"Natur von Menschenhand"},{"lon":7.3807584,"lat":51.5101054,"name":"Nazar Grill"},{"lon":7.3802646,"lat":51.5101205,"name":"Nazar-Grill"},{"lon":7.5016916,"lat":51.5002134,"name":"ner-Grundschule Sporthalle"},{"lon":7.551924,"lat":51.5353573,"name":"Netto Kundenparkplatz"},{"lon":7.4615722,"lat":51.4506299,"name":"Neuapostolische Kiche"},{"lon":7.3826765,"lat":51.5115069,"name":"neuapostolische Kirche"},{"lon":7.3734599,"lat":51.5515891,"name":"Neuapostolische Kirche"},{"lon":7.3250509,"lat":51.5020952,"name":"Neue Apotheke"},{"lon":7.5238827,"lat":51.5685788,"name":"Neue Apotheke Derne"},{"lon":7.494834,"lat":51.4856689,"name":"Neumarkt Apotheke"},{"lon":7.4685105,"lat":51.5118972,"name":"Neutor-Apotheke"},{"lon":7.4697878,"lat":51.4749131,"name":"Neuweltgeier"},{"lon":7.4463277,"lat":51.5127542,"name":"New Ceylon Imbiss"},{"lon":7.4751535,"lat":51.5139484,"name":"New Islands"},{"lon":7.4628666,"lat":51.5176753,"name":"NH Dortmund"},{"lon":7.4641445,"lat":51.5158543,"name":"NhyStar"},{"lon":7.4056153,"lat":51.5188793,"name":"Nichtschwimmer"},{"lon":7.4544567,"lat":51.5090924,"name":"Nonna Concetta"},{"lon":7.4588972,"lat":51.5137148,"name":"Noodle to go"},{"lon":7.3636905,"lat":51.5178938,"name":"Norberts Bistro"},{"lon":7.4595088,"lat":51.5216225,"name":"Nordbad"},{"lon":7.4641406,"lat":51.5228916,"name":"Nord Grill"},